{"cities":[{"name":"Adilhan","state":"Çanakkale","territory":"","country":"Turkey","latitude":40.6779684,"longitude":26.7633767,"population":493,"stateCapital":false,"nationalCapital":false,"pk":null,"quiz":"europe","code":null,"archived":false,"percentageOfSessions":null}, {"name":"Alçıtepe","state":"Çanakkale","territory":"","country":"Turkey","latitude":40.094914,"longitude":26.2272995,"population":445,"stateCapital":false,"nationalCapital":false,"pk":null,"quiz":"europe","code":null,"archived":false,"percentageOfSessions":null}, {"name":"Bademli","state":"Çanakkale","territory":"","country":"Turkey","latitude":40.2216848,"longitude":25.9080145,"population":68,"stateCapital":false,"nationalCapital":false,"pk":null,"quiz":"europe","code":null,"archived":false,"percentageOfSessions":null}, {"name":"Bayırköy","state":"Çanakkale","territory":"","country":"Turkey","latitude":40.3541797,"longitude":26.5854422,"population":599,"stateCapital":false,"nationalCapital":false,"pk":null,"quiz":"europe","code":null,"archived":false,"percentageOfSessions":null}, {"name":"Bayramiç","state":"Çanakkale","territory":"","country":"Turkey","latitude":40.702812,"longitude":26.909231,"population":601,"stateCapital":false,"nationalCapital":false,"pk":null,"quiz":"europe","code":null,"archived":false,"percentageOfSessions":null}, {"name":"Behramlı","state":"Çanakkale","territory":"","country":"Turkey","latitude":40.1272104,"longitude":26.2911576,"population":432,"stateCapital":false,"nationalCapital":false,"pk":null,"quiz":"europe","code":null,"archived":false,"percentageOfSessions":null}, {"name":"Beşyol","state":"Çanakkale","territory":"","country":"Turkey","latitude":40.327755,"longitude":26.345724,"population":191,"stateCapital":false,"nationalCapital":false,"pk":null,"quiz":"europe","code":null,"archived":false,"percentageOfSessions":null}, {"name":"Bigalı","state":"Çanakkale","territory":"","country":"Turkey","latitude":40.235718,"longitude":26.359732,"population":119,"stateCapital":false,"nationalCapital":false,"pk":null,"quiz":"europe","code":null,"archived":false,"percentageOfSessions":null}, {"name":"Bolayır","state":"Çanakkale","territory":"","country":"Turkey","latitude":40.5157329,"longitude":26.75738,"population":1085,"stateCapital":false,"nationalCapital":false,"pk":null,"quiz":"europe","code":null,"archived":false,"percentageOfSessions":null}, {"name":"Burhanlı","state":"Çanakkale","territory":"","country":"Turkey","latitude":40.3086276,"longitude":26.5621865,"population":215,"stateCapital":false,"nationalCapital":false,"pk":null,"quiz":"europe","code":null,"archived":false,"percentageOfSessions":null}, {"name":"Büyükanafarta","state":"Çanakkale","territory":"","country":"Turkey","latitude":40.281624,"longitude":26.329241,"population":195,"stateCapital":false,"nationalCapital":false,"pk":null,"quiz":"europe","code":null,"archived":false,"percentageOfSessions":null}, {"name":"Cevizli","state":"Çanakkale","territory":"","country":"Turkey","latitude":40.3703243,"longitude":26.5830917,"population":102,"stateCapital":false,"nationalCapital":false,"pk":null,"quiz":"europe","code":null,"archived":false,"percentageOfSessions":null}, {"name":"Çokal","state":"Çanakkale","territory":"","country":"Turkey","latitude":40.692477,"longitude":26.9972377,"population":166,"stateCapital":false,"nationalCapital":false,"pk":null,"quiz":"europe","code":null,"archived":false,"percentageOfSessions":null}, {"name":"Cumalı","state":"Çanakkale","territory":"","country":"Turkey","latitude":40.3372276,"longitude":26.5652182,"population":77,"stateCapital":false,"nationalCapital":false,"pk":null,"quiz":"europe","code":null,"archived":false,"percentageOfSessions":null}, {"name":"Değirmendüzü","state":"Çanakkale","territory":"","country":"Turkey","latitude":40.413876,"longitude":26.504475,"population":375,"stateCapital":false,"nationalCapital":false,"pk":null,"quiz":"europe","code":null,"archived":false,"percentageOfSessions":null}, {"name":"Demirtepe","state":"Çanakkale","territory":"","country":"Turkey","latitude":40.5127691,"longitude":26.7897111,"population":216,"stateCapital":false,"nationalCapital":false,"pk":null,"quiz":"europe","code":null,"archived":false,"percentageOfSessions":null}, {"name":"Dereköy","state":"Çanakkale","territory":"","country":"Turkey","latitude":40.1513784,"longitude":25.7709873,"population":339,"stateCapital":false,"nationalCapital":false,"pk":null,"quiz":"europe","code":null,"archived":false,"percentageOfSessions":null}, {"name":"Eceabat","state":"Çanakkale","territory":"","country":"Turkey","latitude":40.1852143,"longitude":26.3590969,"population":5639,"stateCapital":false,"nationalCapital":false,"pk":null,"quiz":"europe","code":null,"archived":false,"percentageOfSessions":null}, {"name":"Eşelek","state":"Çanakkale","territory":"","country":"Turkey","latitude":40.1481431,"longitude":25.9459867,"population":165,"stateCapital":false,"nationalCapital":false,"pk":null,"quiz":"europe","code":null,"archived":false,"percentageOfSessions":null}, {"name":"Evreşe","state":"Çanakkale","territory":"","country":"Turkey","latitude":40.6652728,"longitude":26.8811674,"population":2153,"stateCapital":false,"nationalCapital":false,"pk":null,"quiz":"europe","code":null,"archived":false,"percentageOfSessions":null}, {"name":"Fındıklı","state":"Çanakkale","territory":"","country":"Turkey","latitude":40.4342621,"longitude":26.5493162,"population":227,"stateCapital":false,"nationalCapital":false,"pk":null,"quiz":"europe","code":null,"archived":false,"percentageOfSessions":null}, {"name":"Gelibolu","state":"Çanakkale","territory":"","country":"Turkey","latitude":40.4054063,"longitude":26.6722539,"population":30394,"stateCapital":false,"nationalCapital":false,"pk":null,"quiz":"europe","code":null,"archived":false,"percentageOfSessions":null}, {"name":"Gökçeada","state":"Çanakkale","territory":"","country":"Turkey","latitude":40.2003874,"longitude":25.9084625,"population":6796,"stateCapital":false,"nationalCapital":false,"pk":null,"quiz":"europe","code":null,"archived":false,"percentageOfSessions":null}, {"name":"Güneyli","state":"Çanakkale","territory":"","country":"Turkey","latitude":40.4943981,"longitude":26.6857211,"population":689,"stateCapital":false,"nationalCapital":false,"pk":null,"quiz":"europe","code":null,"archived":false,"percentageOfSessions":null}, {"name":"Ilgardere","state":"Çanakkale","territory":"","country":"Turkey","latitude":40.3041485,"longitude":26.4782758,"population":253,"stateCapital":false,"nationalCapital":false,"pk":null,"quiz":"europe","code":null,"archived":false,"percentageOfSessions":null}, {"name":"Kalealtı","state":"Çanakkale","territory":"","country":"Turkey","latitude":40.693687,"longitude":26.810007,"population":141,"stateCapital":false,"nationalCapital":false,"pk":null,"quiz":"europe","code":null,"archived":false,"percentageOfSessions":null}, {"name":"Kaleköy","state":"Çanakkale","territory":"","country":"Turkey","latitude":40.2335474,"longitude":25.8985823,"population":127,"stateCapital":false,"nationalCapital":false,"pk":null,"quiz":"europe","code":null,"archived":false,"percentageOfSessions":null}, {"name":"Karainebeyli","state":"Çanakkale","territory":"","country":"Turkey","latitude":40.3505167,"longitude":26.431935,"population":319,"stateCapital":false,"nationalCapital":false,"pk":null,"quiz":"europe","code":null,"archived":false,"percentageOfSessions":null}, {"name":"Kavakköy","state":"Çanakkale","territory":"","country":"Turkey","latitude":40.6054355,"longitude":26.8851925,"population":2618,"stateCapital":false,"nationalCapital":false,"pk":null,"quiz":"europe","code":null,"archived":false,"percentageOfSessions":null}, {"name":"Kavaklı","state":"Çanakkale","territory":"","country":"Turkey","latitude":40.437355,"longitude":26.612072,"population":129,"stateCapital":false,"nationalCapital":false,"pk":null,"quiz":"europe","code":null,"archived":false,"percentageOfSessions":null}, {"name":"Kilidülbahir","state":"Çanakkale","territory":"","country":"Turkey","latitude":40.1467789,"longitude":26.3779734,"population":605,"stateCapital":false,"nationalCapital":false,"pk":null,"quiz":"europe","code":null,"archived":false,"percentageOfSessions":null}, {"name":"Kocaçeşme","state":"Çanakkale","territory":"","country":"Turkey","latitude":40.6609765,"longitude":26.7989603,"population":164,"stateCapital":false,"nationalCapital":false,"pk":null,"quiz":"europe","code":null,"archived":false,"percentageOfSessions":null}, {"name":"Kocadere","state":"Çanakkale","territory":"","country":"Turkey","latitude":40.231388,"longitude":26.326172,"population":62,"stateCapital":false,"nationalCapital":false,"pk":null,"quiz":"europe","code":null,"archived":false,"percentageOfSessions":null}, {"name":"Koruköy","state":"Çanakkale","territory":"","country":"Turkey","latitude":40.5379628,"longitude":26.8039691,"population":418,"stateCapital":false,"nationalCapital":false,"pk":null,"quiz":"europe","code":null,"archived":false,"percentageOfSessions":null}, {"name":"Küçükanafarta","state":"Çanakkale","territory":"","country":"Turkey","latitude":40.305908,"longitude":26.31926,"population":190,"stateCapital":false,"nationalCapital":false,"pk":null,"quiz":"europe","code":null,"archived":false,"percentageOfSessions":null}, {"name":"Kumköy","state":"Çanakkale","territory":"","country":"Turkey","latitude":40.289757,"longitude":26.395788,"population":302,"stateCapital":false,"nationalCapital":false,"pk":null,"quiz":"europe","code":null,"archived":false,"percentageOfSessions":null}, {"name":"Ocaklı","state":"Çanakkale","territory":"","country":"Turkey","latitude":40.4802921,"longitude":26.6412421,"population":127,"stateCapital":false,"nationalCapital":false,"pk":null,"quiz":"europe","code":null,"archived":false,"percentageOfSessions":null}, {"name":"Pazarlı","state":"Çanakkale","territory":"","country":"Turkey","latitude":40.3153082,"longitude":26.4976817,"population":128,"stateCapital":false,"nationalCapital":false,"pk":null,"quiz":"europe","code":null,"archived":false,"percentageOfSessions":null}, {"name":"Şadıllı","state":"Çanakkale","territory":"","country":"Turkey","latitude":40.696621,"longitude":26.839268,"population":225,"stateCapital":false,"nationalCapital":false,"pk":null,"quiz":"europe","code":null,"archived":false,"percentageOfSessions":null}, {"name":"Seddülbahir","state":"Çanakkale","territory":"","country":"Turkey","latitude":40.0446676,"longitude":26.1889171,"population":264,"stateCapital":false,"nationalCapital":false,"pk":null,"quiz":"europe","code":null,"archived":false,"percentageOfSessions":null}, {"name":"Şirinköy","state":"Çanakkale","territory":"","country":"Turkey","latitude":40.1268915,"longitude":25.7417264,"population":247,"stateCapital":false,"nationalCapital":false,"pk":null,"quiz":"europe","code":null,"archived":false,"percentageOfSessions":null}, {"name":"Süleymaniye","state":"Çanakkale","territory":"","country":"Turkey","latitude":40.686645,"longitude":26.882254,"population":370,"stateCapital":false,"nationalCapital":false,"pk":null,"quiz":"europe","code":null,"archived":false,"percentageOfSessions":null}, {"name":"Sütlüce","state":"Çanakkale","territory":"","country":"Turkey","latitude":40.344429,"longitude":26.6008953,"population":570,"stateCapital":false,"nationalCapital":false,"pk":null,"quiz":"europe","code":null,"archived":false,"percentageOfSessions":null}, {"name":"Tayfurköy","state":"Çanakkale","territory":"","country":"Turkey","latitude":40.3974212,"longitude":26.4763516,"population":467,"stateCapital":false,"nationalCapital":false,"pk":null,"quiz":"europe","code":null,"archived":false,"percentageOfSessions":null}, {"name":"Tepeköy","state":"Çanakkale","territory":"","country":"Turkey","latitude":40.1909067,"longitude":25.8332185,"population":158,"stateCapital":false,"nationalCapital":false,"pk":null,"quiz":"europe","code":null,"archived":false,"percentageOfSessions":null}, {"name":"Uğurlu","state":"Çanakkale","territory":"","country":"Turkey","latitude":40.1237048,"longitude":25.7071743,"population":546,"stateCapital":false,"nationalCapital":false,"pk":null,"quiz":"europe","code":null,"archived":false,"percentageOfSessions":null}, {"name":"Yalova","state":"Çanakkale","territory":"","country":"Turkey","latitude":40.261479,"longitude":26.414173,"population":231,"stateCapital":false,"nationalCapital":false,"pk":null,"quiz":"europe","code":null,"archived":false,"percentageOfSessions":null}, {"name":"Yenibademli","state":"Çanakkale","territory":"","country":"Turkey","latitude":40.2286543,"longitude":25.9005,"population":854,"stateCapital":false,"nationalCapital":false,"pk":null,"quiz":"europe","code":null,"archived":false,"percentageOfSessions":null}, {"name":"Yeniköy","state":"Çanakkale","territory":"","country":"Turkey","latitude":40.47134,"longitude":26.595077,"population":567,"stateCapital":false,"nationalCapital":false,"pk":null,"quiz":"europe","code":null,"archived":false,"percentageOfSessions":null}, {"name":"Yolağzı","state":"Çanakkale","territory":"","country":"Turkey","latitude":40.317112,"longitude":26.404451,"population":109,"stateCapital":false,"nationalCapital":false,"pk":null,"quiz":"europe","code":null,"archived":false,"percentageOfSessions":null}, {"name":"Yülüce","state":"Çanakkale","territory":"","country":"Turkey","latitude":40.6904862,"longitude":26.9663395,"population":458,"stateCapital":false,"nationalCapital":false,"pk":null,"quiz":"europe","code":null,"archived":false,"percentageOfSessions":null}, {"name":"Zeytinliköy","state":"Çanakkale","territory":"","country":"Turkey","latitude":40.1900766,"longitude":25.8716122,"population":140,"stateCapital":false,"nationalCapital":false,"pk":null,"quiz":"europe","code":null,"archived":false,"percentageOfSessions":null}],"startTimeMs":0}