{"cities":[{"name":"Adilhan","state":"Çanakkale","territory":"","country":"Turkey","latitude":40.6779684,"longitude":26.7633767,"population":493,"stateCapital":false,"nationalCapital":false,"pk":null,"quiz":"europe","code":null,"archived":false,"percentageOfSessions":null}, {"name":"Alçıtepe","state":"Çanakkale","territory":"","country":"Turkey","latitude":40.094914,"longitude":26.2272995,"population":445,"stateCapital":false,"nationalCapital":false,"pk":null,"quiz":"europe","code":null,"archived":false,"percentageOfSessions":null}, {"name":"Bademli","state":"Çanakkale","territory":"","country":"Turkey","latitude":40.2216848,"longitude":25.9080145,"population":68,"stateCapital":false,"nationalCapital":false,"pk":null,"quiz":"europe","code":null,"archived":false,"percentageOfSessions":null}, {"name":"Bayırköy","state":"Çanakkale","territory":"","country":"Turkey","latitude":40.3541797,"longitude":26.5854422,"population":599,"stateCapital":false,"nationalCapital":false,"pk":null,"quiz":"europe","code":null,"archived":false,"percentageOfSessions":null}, {"name":"Bayramiç","state":"Çanakkale","territory":"","country":"Turkey","latitude":40.702812,"longitude":26.909231,"population":601,"stateCapital":false,"nationalCapital":false,"pk":null,"quiz":"europe","code":null,"archived":false,"percentageOfSessions":null}, {"name":"Behramlı","state":"Çanakkale","territory":"","country":"Turkey","latitude":40.1272104,"longitude":26.2911576,"population":432,"stateCapital":false,"nationalCapital":false,"pk":null,"quiz":"europe","code":null,"archived":false,"percentageOfSessions":null}, {"name":"Beşyol","state":"Çanakkale","territory":"","country":"Turkey","latitude":40.327755,"longitude":26.345724,"population":191,"stateCapital":false,"nationalCapital":false,"pk":null,"quiz":"europe","code":null,"archived":false,"percentageOfSessions":null}, {"name":"Bigalı","state":"Çanakkale","territory":"","country":"Turkey","latitude":40.235718,"longitude":26.359732,"population":119,"stateCapital":false,"nationalCapital":false,"pk":null,"quiz":"europe","code":null,"archived":false,"percentageOfSessions":null}, {"name":"Bolayır","state":"Çanakkale","territory":"","country":"Turkey","latitude":40.5157329,"longitude":26.75738,"population":1085,"stateCapital":false,"nationalCapital":false,"pk":null,"quiz":"europe","code":null,"archived":false,"percentageOfSessions":null}, {"name":"Burhanlı","state":"Çanakkale","territory":"","country":"Turkey","latitude":40.3086276,"longitude":26.5621865,"population":215,"stateCapital":false,"nationalCapital":false,"pk":null,"quiz":"europe","code":null,"archived":false,"percentageOfSessions":null}, {"name":"Büyükanafarta","state":"Çanakkale","territory":"","country":"Turkey","latitude":40.281624,"longitude":26.329241,"population":195,"stateCapital":false,"nationalCapital":false,"pk":null,"quiz":"europe","code":null,"archived":false,"percentageOfSessions":null}, {"name":"Cevizli","state":"Çanakkale","territory":"","country":"Turkey","latitude":40.3703243,"longitude":26.5830917,"population":102,"stateCapital":false,"nationalCapital":false,"pk":null,"quiz":"europe","code":null,"archived":false,"percentageOfSessions":null}, {"name":"Çokal","state":"Çanakkale","territory":"","country":"Turkey","latitude":40.692477,"longitude":26.9972377,"population":166,"stateCapital":false,"nationalCapital":false,"pk":null,"quiz":"europe","code":null,"archived":false,"percentageOfSessions":null}, {"name":"Cumalı","state":"Çanakkale","territory":"","country":"Turkey","latitude":40.3372276,"longitude":26.5652182,"population":77,"stateCapital":false,"nationalCapital":false,"pk":null,"quiz":"europe","code":null,"archived":false,"percentageOfSessions":null}, {"name":"Değirmendüzü","state":"Çanakkale","territory":"","country":"Turkey","latitude":40.413876,"longitude":26.504475,"population":375,"stateCapital":false,"nationalCapital":false,"pk":null,"quiz":"europe","code":null,"archived":false,"percentageOfSessions":null}, {"name":"Demirtepe","state":"Çanakkale","territory":"","country":"Turkey","latitude":40.5127691,"longitude":26.7897111,"population":216,"stateCapital":false,"nationalCapital":false,"pk":null,"quiz":"europe","code":null,"archived":false,"percentageOfSessions":null}, {"name":"Dereköy","state":"Çanakkale","territory":"","country":"Turkey","latitude":40.1513784,"longitude":25.7709873,"population":339,"stateCapital":false,"nationalCapital":false,"pk":null,"quiz":"europe","code":null,"archived":false,"percentageOfSessions":null}, {"name":"Eceabat","state":"Çanakkale","territory":"","country":"Turkey","latitude":40.1852143,"longitude":26.3590969,"population":5639,"stateCapital":false,"nationalCapital":false,"pk":null,"quiz":"europe","code":null,"archived":false,"percentageOfSessions":null}, {"name":"Eşelek","state":"Çanakkale","territory":"","country":"Turkey","latitude":40.1481431,"longitude":25.9459867,"population":165,"stateCapital":false,"nationalCapital":false,"pk":null,"quiz":"europe","code":null,"archived":false,"percentageOfSessions":null}, {"name":"Evreşe","state":"Çanakkale","territory":"","country":"Turkey","latitude":40.6652728,"longitude":26.8811674,"population":2153,"stateCapital":false,"nationalCapital":false,"pk":null,"quiz":"europe","code":null,"archived":false,"percentageOfSessions":null}, {"name":"Fındıklı","state":"Çanakkale","territory":"","country":"Turkey","latitude":40.4342621,"longitude":26.5493162,"population":227,"stateCapital":false,"nationalCapital":false,"pk":null,"quiz":"europe","code":null,"archived":false,"percentageOfSessions":null}, {"name":"Gelibolu","state":"Çanakkale","territory":"","country":"Turkey","latitude":40.4054063,"longitude":26.6722539,"population":30394,"stateCapital":false,"nationalCapital":false,"pk":null,"quiz":"europe","code":null,"archived":false,"percentageOfSessions":null}, {"name":"Gökçeada","state":"Çanakkale","territory":"","country":"Turkey","latitude":40.2003874,"longitude":25.9084625,"population":6796,"stateCapital":false,"nationalCapital":false,"pk":null,"quiz":"europe","code":null,"archived":false,"percentageOfSessions":null}, {"name":"Güneyli","state":"Çanakkale","territory":"","country":"Turkey","latitude":40.4943981,"longitude":26.6857211,"population":689,"stateCapital":false,"nationalCapital":false,"pk":null,"quiz":"europe","code":null,"archived":false,"percentageOfSessions":null}, {"name":"Ilgardere","state":"Çanakkale","territory":"","country":"Turkey","latitude":40.3041485,"longitude":26.4782758,"population":253,"stateCapital":false,"nationalCapital":false,"pk":null,"quiz":"europe","code":null,"archived":false,"percentageOfSessions":null}, {"name":"Kalealtı","state":"Çanakkale","territory":"","country":"Turkey","latitude":40.693687,"longitude":26.810007,"population":141,"stateCapital":false,"nationalCapital":false,"pk":null,"quiz":"europe","code":null,"archived":false,"percentageOfSessions":null}, {"name":"Kaleköy","state":"Çanakkale","territory":"","country":"Turkey","latitude":40.2335474,"longitude":25.8985823,"population":127,"stateCapital":false,"nationalCapital":false,"pk":null,"quiz":"europe","code":null,"archived":false,"percentageOfSessions":null}, {"name":"Karainebeyli","state":"Çanakkale","territory":"","country":"Turkey","latitude":40.3505167,"longitude":26.431935,"population":319,"stateCapital":false,"nationalCapital":false,"pk":null,"quiz":"europe","code":null,"archived":false,"percentageOfSessions":null}, {"name":"Kavakköy","state":"Çanakkale","territory":"","country":"Turkey","latitude":40.6054355,"longitude":26.8851925,"population":2618,"stateCapital":false,"nationalCapital":false,"pk":null,"quiz":"europe","code":null,"archived":false,"percentageOfSessions":null}, {"name":"Kavaklı","state":"Çanakkale","territory":"","country":"Turkey","latitude":40.437355,"longitude":26.612072,"population":129,"stateCapital":false,"nationalCapital":false,"pk":null,"quiz":"europe","code":null,"archived":false,"percentageOfSessions":null}, {"name":"Kilidülbahir","state":"Çanakkale","territory":"","country":"Turkey","latitude":40.1467789,"longitude":26.3779734,"population":605,"stateCapital":false,"nationalCapital":false,"pk":null,"quiz":"europe","code":null,"archived":false,"percentageOfSessions":null}, {"name":"Kocaçeşme","state":"Çanakkale","territory":"","country":"Turkey","latitude":40.6609765,"longitude":26.7989603,"population":164,"stateCapital":false,"nationalCapital":false,"pk":null,"quiz":"europe","code":null,"archived":false,"percentageOfSessions":null}, {"name":"Kocadere","state":"Çanakkale","territory":"","country":"Turkey","latitude":40.231388,"longitude":26.326172,"population":62,"stateCapital":false,"nationalCapital":false,"pk":null,"quiz":"europe","code":null,"archived":false,"percentageOfSessions":null}, {"name":"Koruköy","state":"Çanakkale","territory":"","country":"Turkey","latitude":40.5379628,"longitude":26.8039691,"population":418,"stateCapital":false,"nationalCapital":false,"pk":null,"quiz":"europe","code":null,"archived":false,"percentageOfSessions":null}, {"name":"Küçükanafarta","state":"Çanakkale","territory":"","country":"Turkey","latitude":40.305908,"longitude":26.31926,"population":190,"stateCapital":false,"nationalCapital":false,"pk":null,"quiz":"europe","code":null,"archived":false,"percentageOfSessions":null}, {"name":"Kumköy","state":"Çanakkale","territory":"","country":"Turkey","latitude":40.289757,"longitude":26.395788,"population":302,"stateCapital":false,"nationalCapital":false,"pk":null,"quiz":"europe","code":null,"archived":false,"percentageOfSessions":null}, {"name":"Ocaklı","state":"Çanakkale","territory":"","country":"Turkey","latitude":40.4802921,"longitude":26.6412421,"population":127,"stateCapital":false,"nationalCapital":false,"pk":null,"quiz":"europe","code":null,"archived":false,"percentageOfSessions":null}, {"name":"Pazarlı","state":"Çanakkale","territory":"","country":"Turkey","latitude":40.3153082,"longitude":26.4976817,"population":128,"stateCapital":false,"nationalCapital":false,"pk":null,"quiz":"europe","code":null,"archived":false,"percentageOfSessions":null}, {"name":"Şadıllı","state":"Çanakkale","territory":"","country":"Turkey","latitude":40.696621,"longitude":26.839268,"population":225,"stateCapital":false,"nationalCapital":false,"pk":null,"quiz":"europe","code":null,"archived":false,"percentageOfSessions":null}, {"name":"Seddülbahir","state":"Çanakkale","territory":"","country":"Turkey","latitude":40.0446676,"longitude":26.1889171,"population":264,"stateCapital":false,"nationalCapital":false,"pk":null,"quiz":"europe","code":null,"archived":false,"percentageOfSessions":null}, {"name":"Şirinköy","state":"Çanakkale","territory":"","country":"Turkey","latitude":40.1268915,"longitude":25.7417264,"population":247,"stateCapital":false,"nationalCapital":false,"pk":null,"quiz":"europe","code":null,"archived":false,"percentageOfSessions":null}, {"name":"Süleymaniye","state":"Çanakkale","territory":"","country":"Turkey","latitude":40.686645,"longitude":26.882254,"population":370,"stateCapital":false,"nationalCapital":false,"pk":null,"quiz":"europe","code":null,"archived":false,"percentageOfSessions":null}, {"name":"Sütlüce","state":"Çanakkale","territory":"","country":"Turkey","latitude":40.344429,"longitude":26.6008953,"population":570,"stateCapital":false,"nationalCapital":false,"pk":null,"quiz":"europe","code":null,"archived":false,"percentageOfSessions":null}, {"name":"Tayfurköy","state":"Çanakkale","territory":"","country":"Turkey","latitude":40.3974212,"longitude":26.4763516,"population":467,"stateCapital":false,"nationalCapital":false,"pk":null,"quiz":"europe","code":null,"archived":false,"percentageOfSessions":null}, {"name":"Tepeköy","state":"Çanakkale","territory":"","country":"Turkey","latitude":40.1909067,"longitude":25.8332185,"population":158,"stateCapital":false,"nationalCapital":false,"pk":null,"quiz":"europe","code":null,"archived":false,"percentageOfSessions":null}, {"name":"Uğurlu","state":"Çanakkale","territory":"","country":"Turkey","latitude":40.1237048,"longitude":25.7071743,"population":546,"stateCapital":false,"nationalCapital":false,"pk":null,"quiz":"europe","code":null,"archived":false,"percentageOfSessions":null}, {"name":"Yalova","state":"Çanakkale","territory":"","country":"Turkey","latitude":40.261479,"longitude":26.414173,"population":231,"stateCapital":false,"nationalCapital":false,"pk":null,"quiz":"europe","code":null,"archived":false,"percentageOfSessions":null}, {"name":"Yenibademli","state":"Çanakkale","territory":"","country":"Turkey","latitude":40.2286543,"longitude":25.9005,"population":854,"stateCapital":false,"nationalCapital":false,"pk":null,"quiz":"europe","code":null,"archived":false,"percentageOfSessions":null}, {"name":"Yeniköy","state":"Çanakkale","territory":"","country":"Turkey","latitude":40.47134,"longitude":26.595077,"population":567,"stateCapital":false,"nationalCapital":false,"pk":null,"quiz":"europe","code":null,"archived":false,"percentageOfSessions":null}, {"name":"Yolağzı","state":"Çanakkale","territory":"","country":"Turkey","latitude":40.317112,"longitude":26.404451,"population":109,"stateCapital":false,"nationalCapital":false,"pk":null,"quiz":"europe","code":null,"archived":false,"percentageOfSessions":null}, {"name":"Yülüce","state":"Çanakkale","territory":"","country":"Turkey","latitude":40.6904862,"longitude":26.9663395,"population":458,"stateCapital":false,"nationalCapital":false,"pk":null,"quiz":"europe","code":null,"archived":false,"percentageOfSessions":null}, {"name":"Zeytinliköy","state":"Çanakkale","territory":"","country":"Turkey","latitude":40.1900766,"longitude":25.8716122,"population":140,"stateCapital":false,"nationalCapital":false,"pk":null,"quiz":"europe","code":null,"archived":false,"percentageOfSessions":null}, {"name":"Abalar","state":"Edirne","territory":"","country":"Turkey","latitude":41.5450885,"longitude":26.7436038,"population":1046,"stateCapital":false,"nationalCapital":false,"pk":null,"quiz":"europe","code":null,"archived":false,"percentageOfSessions":null}, {"name":"Abdurrahim","state":"Edirne","territory":"","country":"Turkey","latitude":40.641602,"longitude":26.256338,"population":268,"stateCapital":false,"nationalCapital":false,"pk":null,"quiz":"europe","code":null,"archived":false,"percentageOfSessions":null}, {"name":"Adasarhanlı","state":"Edirne","territory":"","country":"Turkey","latitude":41.0838821,"longitude":26.3569231,"population":877,"stateCapital":false,"nationalCapital":false,"pk":null,"quiz":"europe","code":null,"archived":false,"percentageOfSessions":null}, {"name":"Ahı","state":"Edirne","territory":"","country":"Turkey","latitude":41.778023,"longitude":26.407351,"population":137,"stateCapital":false,"nationalCapital":false,"pk":null,"quiz":"europe","code":null,"archived":false,"percentageOfSessions":null}, {"name":"Akardere","state":"Edirne","territory":"","country":"Turkey","latitude":41.6811988,"longitude":26.9301459,"population":406,"stateCapital":false,"nationalCapital":false,"pk":null,"quiz":"europe","code":null,"archived":false,"percentageOfSessions":null}, {"name":"Akçadam","state":"Edirne","territory":"","country":"Turkey","latitude":41.305119,"longitude":26.5308523,"population":504,"stateCapital":false,"nationalCapital":false,"pk":null,"quiz":"europe","code":null,"archived":false,"percentageOfSessions":null}, {"name":"Akçeşme","state":"Edirne","territory":"","country":"Turkey","latitude":40.8499986,"longitude":26.4907468,"population":129,"stateCapital":false,"nationalCapital":false,"pk":null,"quiz":"europe","code":null,"archived":false,"percentageOfSessions":null}, {"name":"Akhoca","state":"Edirne","territory":"","country":"Turkey","latitude":40.7192137,"longitude":26.4033882,"population":480,"stateCapital":false,"nationalCapital":false,"pk":null,"quiz":"europe","code":null,"archived":false,"percentageOfSessions":null}, {"name":"Akıncılar","state":"Edirne","territory":"","country":"Turkey","latitude":41.1923781,"longitude":26.5182078,"population":122,"stateCapital":false,"nationalCapital":false,"pk":null,"quiz":"europe","code":null,"archived":false,"percentageOfSessions":null}, {"name":"Alibey","state":"Edirne","territory":"","country":"Turkey","latitude":41.2451089,"longitude":26.3551725,"population":210,"stateCapital":false,"nationalCapital":false,"pk":null,"quiz":"europe","code":null,"archived":false,"percentageOfSessions":null}, {"name":"Alıç","state":"Edirne","territory":"","country":"Turkey","latitude":41.0615351,"longitude":26.6510176,"population":245,"stateCapital":false,"nationalCapital":false,"pk":null,"quiz":"europe","code":null,"archived":false,"percentageOfSessions":null}, {"name":"Aliçopehlivan","state":"Edirne","territory":"","country":"Turkey","latitude":40.8409044,"longitude":26.4398252,"population":1862,"stateCapital":false,"nationalCapital":false,"pk":null,"quiz":"europe","code":null,"archived":false,"percentageOfSessions":null}, {"name":"Altıntaş","state":"Edirne","territory":"","country":"Turkey","latitude":41.0097965,"longitude":26.7039454,"population":400,"stateCapital":false,"nationalCapital":false,"pk":null,"quiz":"europe","code":null,"archived":false,"percentageOfSessions":null}, {"name":"Altınyazı","state":"Edirne","territory":"","country":"Turkey","latitude":41.07336,"longitude":26.5766577,"population":324,"stateCapital":false,"nationalCapital":false,"pk":null,"quiz":"europe","code":null,"archived":false,"percentageOfSessions":null}, {"name":"Arpaç","state":"Edirne","territory":"","country":"Turkey","latitude":41.690365,"longitude":26.8818127,"population":289,"stateCapital":false,"nationalCapital":false,"pk":null,"quiz":"europe","code":null,"archived":false,"percentageOfSessions":null}, {"name":"Aslıhan","state":"Edirne","territory":"","country":"Turkey","latitude":41.4128,"longitude":26.7954983,"population":514,"stateCapital":false,"nationalCapital":false,"pk":null,"quiz":"europe","code":null,"archived":false,"percentageOfSessions":null}, {"name":"Avarız","state":"Edirne","territory":"","country":"Turkey","latitude":41.746808,"longitude":26.545759,"population":324,"stateCapital":false,"nationalCapital":false,"pk":null,"quiz":"europe","code":null,"archived":false,"percentageOfSessions":null}, {"name":"Azatlı","state":"Edirne","territory":"","country":"Turkey","latitude":41.501034,"longitude":26.702332,"population":686,"stateCapital":false,"nationalCapital":false,"pk":null,"quiz":"europe","code":null,"archived":false,"percentageOfSessions":null}, {"name":"Bahçeköy","state":"Edirne","territory":"","country":"Turkey","latitude":40.7857685,"longitude":26.677575,"population":502,"stateCapital":false,"nationalCapital":false,"pk":null,"quiz":"europe","code":null,"archived":false,"percentageOfSessions":null}, {"name":"Bakışlar","state":"Edirne","territory":"","country":"Turkey","latitude":41.4582124,"longitude":26.8308066,"population":215,"stateCapital":false,"nationalCapital":false,"pk":null,"quiz":"europe","code":null,"archived":false,"percentageOfSessions":null}, {"name":"Balaban","state":"Edirne","territory":"","country":"Turkey","latitude":41.088898,"longitude":26.5480607,"population":344,"stateCapital":false,"nationalCapital":false,"pk":null,"quiz":"europe","code":null,"archived":false,"percentageOfSessions":null}, {"name":"Balabancık","state":"Edirne","territory":"","country":"Turkey","latitude":41.033474,"longitude":26.405064,"population":429,"stateCapital":false,"nationalCapital":false,"pk":null,"quiz":"europe","code":null,"archived":false,"percentageOfSessions":null}, {"name":"Balabankoru","state":"Edirne","territory":"","country":"Turkey","latitude":41.1110601,"longitude":26.5153111,"population":382,"stateCapital":false,"nationalCapital":false,"pk":null,"quiz":"europe","code":null,"archived":false,"percentageOfSessions":null}, {"name":"Barağı","state":"Edirne","territory":"","country":"Turkey","latitude":40.7082739,"longitude":26.4298938,"population":118,"stateCapital":false,"nationalCapital":false,"pk":null,"quiz":"europe","code":null,"archived":false,"percentageOfSessions":null}, {"name":"Başağıl","state":"Edirne","territory":"","country":"Turkey","latitude":41.2645128,"longitude":26.797079,"population":326,"stateCapital":false,"nationalCapital":false,"pk":null,"quiz":"europe","code":null,"archived":false,"percentageOfSessions":null}, {"name":"Bayramlı","state":"Edirne","territory":"","country":"Turkey","latitude":41.306777,"longitude":26.8261259,"population":354,"stateCapital":false,"nationalCapital":false,"pk":null,"quiz":"europe","code":null,"archived":false,"percentageOfSessions":null}, {"name":"Beğendik","state":"Edirne","territory":"","country":"Turkey","latitude":40.9289308,"longitude":26.5756538,"population":3167,"stateCapital":false,"nationalCapital":false,"pk":null,"quiz":"europe","code":null,"archived":false,"percentageOfSessions":null}, {"name":"Beykonak","state":"Edirne","territory":"","country":"Turkey","latitude":41.1737246,"longitude":26.7919419,"population":118,"stateCapital":false,"nationalCapital":false,"pk":null,"quiz":"europe","code":null,"archived":false,"percentageOfSessions":null}, {"name":"Beyköy","state":"Edirne","territory":"","country":"Turkey","latitude":40.6675313,"longitude":26.5113993,"population":145,"stateCapital":false,"nationalCapital":false,"pk":null,"quiz":"europe","code":null,"archived":false,"percentageOfSessions":null}, {"name":"Bıldır","state":"Edirne","territory":"","country":"Turkey","latitude":41.2879572,"longitude":26.8927029,"population":150,"stateCapital":false,"nationalCapital":false,"pk":null,"quiz":"europe","code":null,"archived":false,"percentageOfSessions":null}, {"name":"Bosna","state":"Edirne","territory":"","country":"Turkey","latitude":41.624668,"longitude":26.565666,"population":71,"stateCapital":false,"nationalCapital":false,"pk":null,"quiz":"europe","code":null,"archived":false,"percentageOfSessions":null}, {"name":"Bostanlı","state":"Edirne","territory":"","country":"Turkey","latitude":41.6108441,"longitude":26.970305,"population":152,"stateCapital":false,"nationalCapital":false,"pk":null,"quiz":"europe","code":null,"archived":false,"percentageOfSessions":null}, {"name":"Boztepe","state":"Edirne","territory":"","country":"Turkey","latitude":40.8430468,"longitude":26.5187969,"population":340,"stateCapital":false,"nationalCapital":false,"pk":null,"quiz":"europe","code":null,"archived":false,"percentageOfSessions":null}, {"name":"Budakdoğanca","state":"Edirne","territory":"","country":"Turkey","latitude":41.7611252,"longitude":26.3418658,"population":161,"stateCapital":false,"nationalCapital":false,"pk":null,"quiz":"europe","code":null,"archived":false,"percentageOfSessions":null}, {"name":"Büyük Gerdelli","state":"Edirne","territory":"","country":"Turkey","latitude":41.7355319,"longitude":26.9511114,"population":775,"stateCapital":false,"nationalCapital":false,"pk":null,"quiz":"europe","code":null,"archived":false,"percentageOfSessions":null}, {"name":"Büyükaltıağaç","state":"Edirne","territory":"","country":"Turkey","latitude":41.112457,"longitude":26.406725,"population":609,"stateCapital":false,"nationalCapital":false,"pk":null,"quiz":"europe","code":null,"archived":false,"percentageOfSessions":null}, {"name":"Büyükdoğanca","state":"Edirne","territory":"","country":"Turkey","latitude":40.7717466,"longitude":26.5844483,"population":149,"stateCapital":false,"nationalCapital":false,"pk":null,"quiz":"europe","code":null,"archived":false,"percentageOfSessions":null}, {"name":"Büyükdöllük","state":"Edirne","territory":"","country":"Turkey","latitude":41.7582835,"longitude":26.6010876,"population":635,"stateCapital":false,"nationalCapital":false,"pk":null,"quiz":"europe","code":null,"archived":false,"percentageOfSessions":null}, {"name":"Büyükevren","state":"Edirne","territory":"","country":"Turkey","latitude":40.652046,"longitude":26.228537,"population":766,"stateCapital":false,"nationalCapital":false,"pk":null,"quiz":"europe","code":null,"archived":false,"percentageOfSessions":null}, {"name":"Büyükismailçe","state":"Edirne","territory":"","country":"Turkey","latitude":41.815296,"longitude":26.468807,"population":180,"stateCapital":false,"nationalCapital":false,"pk":null,"quiz":"europe","code":null,"archived":false,"percentageOfSessions":null}, {"name":"Büyünlü","state":"Edirne","territory":"","country":"Turkey","latitude":41.8918097,"longitude":26.7332686,"population":210,"stateCapital":false,"nationalCapital":false,"pk":null,"quiz":"europe","code":null,"archived":false,"percentageOfSessions":null}, {"name":"Çakmak","state":"Edirne","territory":"","country":"Turkey","latitude":41.3754815,"longitude":26.6651101,"population":276,"stateCapital":false,"nationalCapital":false,"pk":null,"quiz":"europe","code":null,"archived":false,"percentageOfSessions":null}, {"name":"Çalı","state":"Edirne","territory":"","country":"Turkey","latitude":41.2870726,"longitude":26.5952968,"population":254,"stateCapital":false,"nationalCapital":false,"pk":null,"quiz":"europe","code":null,"archived":false,"percentageOfSessions":null}, {"name":"Çallıdere","state":"Edirne","territory":"","country":"Turkey","latitude":41.9403335,"longitude":26.7241461,"population":78,"stateCapital":false,"nationalCapital":false,"pk":null,"quiz":"europe","code":null,"archived":false,"percentageOfSessions":null}, {"name":"Çamlıca","state":"Edirne","territory":"","country":"Turkey","latitude":40.7626402,"longitude":26.6725314,"population":710,"stateCapital":false,"nationalCapital":false,"pk":null,"quiz":"europe","code":null,"archived":false,"percentageOfSessions":null}, {"name":"Çandır","state":"Edirne","territory":"","country":"Turkey","latitude":40.7292586,"longitude":26.2665503,"population":13,"stateCapital":false,"nationalCapital":false,"pk":null,"quiz":"europe","code":null,"archived":false,"percentageOfSessions":null}, {"name":"Çatma","state":"Edirne","territory":"","country":"Turkey","latitude":41.8838002,"longitude":26.638493,"population":44,"stateCapital":false,"nationalCapital":false,"pk":null,"quiz":"europe","code":null,"archived":false,"percentageOfSessions":null}, {"name":"Çavuşköy","state":"Edirne","territory":"","country":"Turkey","latitude":40.6878001,"longitude":26.1711204,"population":393,"stateCapital":false,"nationalCapital":false,"pk":null,"quiz":"europe","code":null,"archived":false,"percentageOfSessions":null}, {"name":"Çavuşlu","state":"Edirne","territory":"","country":"Turkey","latitude":41.0810349,"longitude":26.7770507,"population":359,"stateCapital":false,"nationalCapital":false,"pk":null,"quiz":"europe","code":null,"archived":false,"percentageOfSessions":null}, {"name":"Çelebi","state":"Edirne","territory":"","country":"Turkey","latitude":40.679687,"longitude":26.3484989,"population":89,"stateCapital":false,"nationalCapital":false,"pk":null,"quiz":"europe","code":null,"archived":false,"percentageOfSessions":null}, {"name":"Çeltik","state":"Edirne","territory":"","country":"Turkey","latitude":40.6845554,"longitude":26.5591373,"population":278,"stateCapital":false,"nationalCapital":false,"pk":null,"quiz":"europe","code":null,"archived":false,"percentageOfSessions":null}, {"name":"Çeribaşı","state":"Edirne","territory":"","country":"Turkey","latitude":40.66531,"longitude":26.254362,"population":204,"stateCapital":false,"nationalCapital":false,"pk":null,"quiz":"europe","code":null,"archived":false,"percentageOfSessions":null}, {"name":"Çiftlik","state":"Edirne","territory":"","country":"Turkey","latitude":41.248219,"longitude":26.615332,"population":180,"stateCapital":false,"nationalCapital":false,"pk":null,"quiz":"europe","code":null,"archived":false,"percentageOfSessions":null}, {"name":"Çobançeşmesi","state":"Edirne","territory":"","country":"Turkey","latitude":40.9596534,"longitude":26.668888,"population":375,"stateCapital":false,"nationalCapital":false,"pk":null,"quiz":"europe","code":null,"archived":false,"percentageOfSessions":null}, {"name":"Çobanpınar","state":"Edirne","territory":"","country":"Turkey","latitude":41.1782441,"longitude":26.5670902,"population":75,"stateCapital":false,"nationalCapital":false,"pk":null,"quiz":"europe","code":null,"archived":false,"percentageOfSessions":null}, {"name":"Çömlek","state":"Edirne","territory":"","country":"Turkey","latitude":41.8429948,"longitude":26.6094623,"population":125,"stateCapital":false,"nationalCapital":false,"pk":null,"quiz":"europe","code":null,"archived":false,"percentageOfSessions":null}, {"name":"Çömlekakpınar","state":"Edirne","territory":"","country":"Turkey","latitude":41.8379272,"longitude":26.645501,"population":472,"stateCapital":false,"nationalCapital":false,"pk":null,"quiz":"europe","code":null,"archived":false,"percentageOfSessions":null}, {"name":"Çöpköy","state":"Edirne","territory":"","country":"Turkey","latitude":41.2194443,"longitude":26.8245114,"population":1063,"stateCapital":false,"nationalCapital":false,"pk":null,"quiz":"europe","code":null,"archived":false,"percentageOfSessions":null}, {"name":"Çukurköy","state":"Edirne","territory":"","country":"Turkey","latitude":41.4683993,"longitude":26.8199663,"population":303,"stateCapital":false,"nationalCapital":false,"pk":null,"quiz":"europe","code":null,"archived":false,"percentageOfSessions":null}, {"name":"Danişment","state":"Edirne","territory":"","country":"Turkey","latitude":40.6200859,"longitude":26.4266794,"population":140,"stateCapital":false,"nationalCapital":false,"pk":null,"quiz":"europe","code":null,"archived":false,"percentageOfSessions":null}, {"name":"Danişment","state":"Edirne","territory":"","country":"Turkey","latitude":41.3052878,"longitude":26.9023447,"population":282,"stateCapital":false,"nationalCapital":false,"pk":null,"quiz":"europe","code":null,"archived":false,"percentageOfSessions":null}, {"name":"Değirmenci","state":"Edirne","territory":"","country":"Turkey","latitude":41.30732,"longitude":26.6895117,"population":292,"stateCapital":false,"nationalCapital":false,"pk":null,"quiz":"europe","code":null,"archived":false,"percentageOfSessions":null}, {"name":"Değirmenyeni","state":"Edirne","territory":"","country":"Turkey","latitude":41.7625029,"longitude":26.5534367,"population":434,"stateCapital":false,"nationalCapital":false,"pk":null,"quiz":"europe","code":null,"archived":false,"percentageOfSessions":null}, {"name":"Demirhanlı","state":"Edirne","territory":"","country":"Turkey","latitude":41.69767,"longitude":26.738035,"population":358,"stateCapital":false,"nationalCapital":false,"pk":null,"quiz":"europe","code":null,"archived":false,"percentageOfSessions":null}, {"name":"Demirköy","state":"Edirne","territory":"","country":"Turkey","latitude":41.9152768,"longitude":26.6714085,"population":242,"stateCapital":false,"nationalCapital":false,"pk":null,"quiz":"europe","code":null,"archived":false,"percentageOfSessions":null}, {"name":"Dereköy","state":"Edirne","territory":"","country":"Turkey","latitude":41.160126,"longitude":26.7084727,"population":687,"stateCapital":false,"nationalCapital":false,"pk":null,"quiz":"europe","code":null,"archived":false,"percentageOfSessions":null}, {"name":"Dişbudak","state":"Edirne","territory":"","country":"Turkey","latitude":40.7195831,"longitude":26.5749085,"population":101,"stateCapital":false,"nationalCapital":false,"pk":null,"quiz":"europe","code":null,"archived":false,"percentageOfSessions":null}, {"name":"Doğanköy","state":"Edirne","territory":"","country":"Turkey","latitude":41.9275652,"longitude":26.7007398,"population":104,"stateCapital":false,"nationalCapital":false,"pk":null,"quiz":"europe","code":null,"archived":false,"percentageOfSessions":null}, {"name":"Dombay","state":"Edirne","territory":"","country":"Turkey","latitude":41.9027336,"longitude":26.6329383,"population":142,"stateCapital":false,"nationalCapital":false,"pk":null,"quiz":"europe","code":null,"archived":false,"percentageOfSessions":null}, {"name":"Domurcalı","state":"Edirne","territory":"","country":"Turkey","latitude":41.8161079,"longitude":26.8198654,"population":222,"stateCapital":false,"nationalCapital":false,"pk":null,"quiz":"europe","code":null,"archived":false,"percentageOfSessions":null}, {"name":"Doyran","state":"Edirne","territory":"","country":"Turkey","latitude":41.4838682,"longitude":26.6044781,"population":636,"stateCapital":false,"nationalCapital":false,"pk":null,"quiz":"europe","code":null,"archived":false,"percentageOfSessions":null}, {"name":"Edirne","state":"Edirne","territory":"","country":"Turkey","latitude":41.6759327,"longitude":26.5587225,"population":172802,"stateCapital":true,"nationalCapital":false,"pk":null,"quiz":"europe","code":null,"archived":false,"percentageOfSessions":null}, {"name":"Ekmekçi","state":"Edirne","territory":"","country":"Turkey","latitude":41.7402939,"longitude":26.4622783,"population":89,"stateCapital":false,"nationalCapital":false,"pk":null,"quiz":"europe","code":null,"archived":false,"percentageOfSessions":null}, {"name":"Elçili","state":"Edirne","territory":"","country":"Turkey","latitude":41.4518063,"longitude":26.6209517,"population":318,"stateCapital":false,"nationalCapital":false,"pk":null,"quiz":"europe","code":null,"archived":false,"percentageOfSessions":null}, {"name":"Elmalı","state":"Edirne","territory":"","country":"Turkey","latitude":41.1781697,"longitude":26.891115,"population":746,"stateCapital":false,"nationalCapital":false,"pk":null,"quiz":"europe","code":null,"archived":false,"percentageOfSessions":null}, {"name":"Enez","state":"Edirne","territory":"","country":"Turkey","latitude":40.725028,"longitude":26.0845648,"population":4164,"stateCapital":false,"nationalCapital":false,"pk":null,"quiz":"europe","code":null,"archived":false,"percentageOfSessions":null}, {"name":"Erikli","state":"Edirne","territory":"","country":"Turkey","latitude":40.6400986,"longitude":26.4561644,"population":399,"stateCapital":false,"nationalCapital":false,"pk":null,"quiz":"europe","code":null,"archived":false,"percentageOfSessions":null}, {"name":"Esetçe","state":"Edirne","territory":"","country":"Turkey","latitude":40.8709433,"longitude":26.4426128,"population":2194,"stateCapital":false,"nationalCapital":false,"pk":null,"quiz":"europe","code":null,"archived":false,"percentageOfSessions":null}, {"name":"Eskikadın","state":"Edirne","territory":"","country":"Turkey","latitude":41.7071432,"longitude":26.457615,"population":400,"stateCapital":false,"nationalCapital":false,"pk":null,"quiz":"europe","code":null,"archived":false,"percentageOfSessions":null}, {"name":"Eskiköy","state":"Edirne","territory":"","country":"Turkey","latitude":41.3278245,"longitude":26.6446371,"population":405,"stateCapital":false,"nationalCapital":false,"pk":null,"quiz":"europe","code":null,"archived":false,"percentageOfSessions":null}, {"name":"Gazimehmet","state":"Edirne","territory":"","country":"Turkey","latitude":41.2014707,"longitude":26.9154695,"population":272,"stateCapital":false,"nationalCapital":false,"pk":null,"quiz":"europe","code":null,"archived":false,"percentageOfSessions":null}, {"name":"Geçkinli","state":"Edirne","territory":"","country":"Turkey","latitude":41.731018,"longitude":26.849077,"population":466,"stateCapital":false,"nationalCapital":false,"pk":null,"quiz":"europe","code":null,"archived":false,"percentageOfSessions":null}, {"name":"Gemici","state":"Edirne","territory":"","country":"Turkey","latitude":41.3146214,"longitude":26.557959,"population":167,"stateCapital":false,"nationalCapital":false,"pk":null,"quiz":"europe","code":null,"archived":false,"percentageOfSessions":null}, {"name":"Gökçetepe","state":"Edirne","territory":"","country":"Turkey","latitude":40.6645313,"longitude":26.6307042,"population":428,"stateCapital":false,"nationalCapital":false,"pk":null,"quiz":"europe","code":null,"archived":false,"percentageOfSessions":null}, {"name":"Gülçavuş","state":"Edirne","territory":"","country":"Turkey","latitude":40.622383,"longitude":26.169113,"population":297,"stateCapital":false,"nationalCapital":false,"pk":null,"quiz":"europe","code":null,"archived":false,"percentageOfSessions":null}, {"name":"Gündüzler","state":"Edirne","territory":"","country":"Turkey","latitude":40.7830278,"longitude":26.462673,"population":100,"stateCapital":false,"nationalCapital":false,"pk":null,"quiz":"europe","code":null,"archived":false,"percentageOfSessions":null}, {"name":"Habiller","state":"Edirne","territory":"","country":"Turkey","latitude":41.6694112,"longitude":26.7952022,"population":240,"stateCapital":false,"nationalCapital":false,"pk":null,"quiz":"europe","code":null,"archived":false,"percentageOfSessions":null}, {"name":"Hacı","state":"Edirne","territory":"","country":"Turkey","latitude":40.980194,"longitude":26.549271,"population":1141,"stateCapital":false,"nationalCapital":false,"pk":null,"quiz":"europe","code":null,"archived":false,"percentageOfSessions":null}, {"name":"Hacıdanişment","state":"Edirne","territory":"","country":"Turkey","latitude":41.9099076,"longitude":26.8218794,"population":345,"stateCapital":false,"nationalCapital":false,"pk":null,"quiz":"europe","code":null,"archived":false,"percentageOfSessions":null}, {"name":"Hacılar","state":"Edirne","territory":"","country":"Turkey","latitude":41.9424925,"longitude":26.7829584,"population":57,"stateCapital":false,"nationalCapital":false,"pk":null,"quiz":"europe","code":null,"archived":false,"percentageOfSessions":null}, {"name":"Hacıumur","state":"Edirne","territory":"","country":"Turkey","latitude":41.718132,"longitude":26.787434,"population":260,"stateCapital":false,"nationalCapital":false,"pk":null,"quiz":"europe","code":null,"archived":false,"percentageOfSessions":null}, {"name":"Hamidiye","state":"Edirne","territory":"","country":"Turkey","latitude":41.1516463,"longitude":26.6662092,"population":269,"stateCapital":false,"nationalCapital":false,"pk":null,"quiz":"europe","code":null,"archived":false,"percentageOfSessions":null}, {"name":"Hamitli","state":"Edirne","territory":"","country":"Turkey","latitude":41.335571,"longitude":26.6952435,"population":328,"stateCapital":false,"nationalCapital":false,"pk":null,"quiz":"europe","code":null,"archived":false,"percentageOfSessions":null}, {"name":"Hamzabeyli","state":"Edirne","territory":"","country":"Turkey","latitude":41.9650154,"longitude":26.6429565,"population":189,"stateCapital":false,"nationalCapital":false,"pk":null,"quiz":"europe","code":null,"archived":false,"percentageOfSessions":null}, {"name":"Hanlıyenice","state":"Edirne","territory":"","country":"Turkey","latitude":41.8702728,"longitude":26.6944835,"population":251,"stateCapital":false,"nationalCapital":false,"pk":null,"quiz":"europe","code":null,"archived":false,"percentageOfSessions":null}, {"name":"Harmanlı","state":"Edirne","territory":"","country":"Turkey","latitude":41.0995954,"longitude":26.7473975,"population":971,"stateCapital":false,"nationalCapital":false,"pk":null,"quiz":"europe","code":null,"archived":false,"percentageOfSessions":null}, {"name":"Hasanağa","state":"Edirne","territory":"","country":"Turkey","latitude":41.7255055,"longitude":26.6250053,"population":169,"stateCapital":false,"nationalCapital":false,"pk":null,"quiz":"europe","code":null,"archived":false,"percentageOfSessions":null}, {"name":"Hasanpınar","state":"Edirne","territory":"","country":"Turkey","latitude":41.1723781,"longitude":26.7523262,"population":449,"stateCapital":false,"nationalCapital":false,"pk":null,"quiz":"europe","code":null,"archived":false,"percentageOfSessions":null}, {"name":"Hasırcıarnavutköy","state":"Edirne","territory":"","country":"Turkey","latitude":41.2729663,"longitude":26.4606584,"population":375,"stateCapital":false,"nationalCapital":false,"pk":null,"quiz":"europe","code":null,"archived":false,"percentageOfSessions":null}, {"name":"Hasköy","state":"Edirne","territory":"","country":"Turkey","latitude":40.669708,"longitude":26.310488,"population":262,"stateCapital":false,"nationalCapital":false,"pk":null,"quiz":"europe","code":null,"archived":false,"percentageOfSessions":null}, {"name":"Hasköy","state":"Edirne","territory":"","country":"Turkey","latitude":41.639212,"longitude":26.857925,"population":623,"stateCapital":false,"nationalCapital":false,"pk":null,"quiz":"europe","code":null,"archived":false,"percentageOfSessions":null}, {"name":"Hatip","state":"Edirne","territory":"","country":"Turkey","latitude":41.8169984,"longitude":26.5660954,"population":131,"stateCapital":false,"nationalCapital":false,"pk":null,"quiz":"europe","code":null,"archived":false,"percentageOfSessions":null}, {"name":"Havsa","state":"Edirne","territory":"","country":"Turkey","latitude":41.5493038,"longitude":26.8205643,"population":8598,"stateCapital":false,"nationalCapital":false,"pk":null,"quiz":"europe","code":null,"archived":false,"percentageOfSessions":null}, {"name":"Hıdırağa","state":"Edirne","territory":"","country":"Turkey","latitude":41.737617,"longitude":26.659552,"population":206,"stateCapital":false,"nationalCapital":false,"pk":null,"quiz":"europe","code":null,"archived":false,"percentageOfSessions":null}, {"name":"Hıdırköy","state":"Edirne","territory":"","country":"Turkey","latitude":40.914467,"longitude":26.46228,"population":222,"stateCapital":false,"nationalCapital":false,"pk":null,"quiz":"europe","code":null,"archived":false,"percentageOfSessions":null}, {"name":"Hisarlı","state":"Edirne","territory":"","country":"Turkey","latitude":40.7207924,"longitude":26.2114267,"population":160,"stateCapital":false,"nationalCapital":false,"pk":null,"quiz":"europe","code":null,"archived":false,"percentageOfSessions":null}, {"name":"Hüseyinpınar","state":"Edirne","territory":"","country":"Turkey","latitude":41.8996652,"longitude":26.5951143,"population":40,"stateCapital":false,"nationalCapital":false,"pk":null,"quiz":"europe","code":null,"archived":false,"percentageOfSessions":null}, {"name":"İbriktepe","state":"Edirne","territory":"","country":"Turkey","latitude":41.0114138,"longitude":26.5035944,"population":1169,"stateCapital":false,"nationalCapital":false,"pk":null,"quiz":"europe","code":null,"archived":false,"percentageOfSessions":null}, {"name":"İpsala","state":"Edirne","territory":"","country":"Turkey","latitude":40.9217064,"longitude":26.3839845,"population":8783,"stateCapital":false,"nationalCapital":false,"pk":null,"quiz":"europe","code":null,"archived":false,"percentageOfSessions":null}, {"name":"Işıklı","state":"Edirne","territory":"","country":"Turkey","latitude":40.7172595,"longitude":26.308376,"population":303,"stateCapital":false,"nationalCapital":false,"pk":null,"quiz":"europe","code":null,"archived":false,"percentageOfSessions":null}, {"name":"İskender","state":"Edirne","territory":"","country":"Turkey","latitude":41.629376,"longitude":26.672529,"population":566,"stateCapital":false,"nationalCapital":false,"pk":null,"quiz":"europe","code":null,"archived":false,"percentageOfSessions":null}, {"name":"Kabaağaç","state":"Edirne","territory":"","country":"Turkey","latitude":41.4805761,"longitude":26.8655062,"population":202,"stateCapital":false,"nationalCapital":false,"pk":null,"quiz":"europe","code":null,"archived":false,"percentageOfSessions":null}, {"name":"Kadıağılı","state":"Edirne","territory":"","country":"Turkey","latitude":41.057537,"longitude":26.6861637,"population":169,"stateCapital":false,"nationalCapital":false,"pk":null,"quiz":"europe","code":null,"archived":false,"percentageOfSessions":null}, {"name":"Kadıdondurma","state":"Edirne","territory":"","country":"Turkey","latitude":41.173256,"longitude":26.354118,"population":674,"stateCapital":false,"nationalCapital":false,"pk":null,"quiz":"europe","code":null,"archived":false,"percentageOfSessions":null}, {"name":"Kadıköy","state":"Edirne","territory":"","country":"Turkey","latitude":40.7804615,"longitude":26.7728996,"population":444,"stateCapital":false,"nationalCapital":false,"pk":null,"quiz":"europe","code":null,"archived":false,"percentageOfSessions":null}, {"name":"Kadıköy","state":"Edirne","territory":"","country":"Turkey","latitude":41.086833,"longitude":26.6763241,"population":192,"stateCapital":false,"nationalCapital":false,"pk":null,"quiz":"europe","code":null,"archived":false,"percentageOfSessions":null}, {"name":"Kalkansöğüt","state":"Edirne","territory":"","country":"Turkey","latitude":41.9711374,"longitude":26.8129074,"population":81,"stateCapital":false,"nationalCapital":false,"pk":null,"quiz":"europe","code":null,"archived":false,"percentageOfSessions":null}, {"name":"Karaağaç","state":"Edirne","territory":"","country":"Turkey","latitude":41.061031,"longitude":26.52993,"population":220,"stateCapital":false,"nationalCapital":false,"pk":null,"quiz":"europe","code":null,"archived":false,"percentageOfSessions":null}, {"name":"Karabulut","state":"Edirne","territory":"","country":"Turkey","latitude":41.768646,"longitude":26.436403,"population":152,"stateCapital":false,"nationalCapital":false,"pk":null,"quiz":"europe","code":null,"archived":false,"percentageOfSessions":null}, {"name":"Karabürçek","state":"Edirne","territory":"","country":"Turkey","latitude":41.1476205,"longitude":26.8412449,"population":346,"stateCapital":false,"nationalCapital":false,"pk":null,"quiz":"europe","code":null,"archived":false,"percentageOfSessions":null}, {"name":"Karacaali","state":"Edirne","territory":"","country":"Turkey","latitude":40.9986407,"longitude":26.663237,"population":262,"stateCapital":false,"nationalCapital":false,"pk":null,"quiz":"europe","code":null,"archived":false,"percentageOfSessions":null}, {"name":"Karahamza","state":"Edirne","territory":"","country":"Turkey","latitude":41.269157,"longitude":26.5386353,"population":115,"stateCapital":false,"nationalCapital":false,"pk":null,"quiz":"europe","code":null,"archived":false,"percentageOfSessions":null}, {"name":"Karahisar","state":"Edirne","territory":"","country":"Turkey","latitude":40.7649535,"longitude":26.5043774,"population":218,"stateCapital":false,"nationalCapital":false,"pk":null,"quiz":"europe","code":null,"archived":false,"percentageOfSessions":null}, {"name":"Karaincirli","state":"Edirne","territory":"","country":"Turkey","latitude":40.6272629,"longitude":26.2974519,"population":601,"stateCapital":false,"nationalCapital":false,"pk":null,"quiz":"europe","code":null,"archived":false,"percentageOfSessions":null}, {"name":"Karakasım","state":"Edirne","territory":"","country":"Turkey","latitude":41.5168135,"longitude":26.644151,"population":475,"stateCapital":false,"nationalCapital":false,"pk":null,"quiz":"europe","code":null,"archived":false,"percentageOfSessions":null}, {"name":"Karapınar","state":"Edirne","territory":"","country":"Turkey","latitude":41.116119,"longitude":26.6338817,"population":442,"stateCapital":false,"nationalCapital":false,"pk":null,"quiz":"europe","code":null,"archived":false,"percentageOfSessions":null}, {"name":"Karasatı","state":"Edirne","territory":"","country":"Turkey","latitude":40.9636158,"longitude":26.6940588,"population":134,"stateCapital":false,"nationalCapital":false,"pk":null,"quiz":"europe","code":null,"archived":false,"percentageOfSessions":null}, {"name":"Karayayla","state":"Edirne","territory":"","country":"Turkey","latitude":41.2503555,"longitude":26.5804364,"population":186,"stateCapital":false,"nationalCapital":false,"pk":null,"quiz":"europe","code":null,"archived":false,"percentageOfSessions":null}, {"name":"Karayusuf","state":"Edirne","territory":"","country":"Turkey","latitude":41.7317897,"longitude":26.6949146,"population":147,"stateCapital":false,"nationalCapital":false,"pk":null,"quiz":"europe","code":null,"archived":false,"percentageOfSessions":null}, {"name":"Karayusuflu","state":"Edirne","territory":"","country":"Turkey","latitude":41.2631926,"longitude":26.4332998,"population":274,"stateCapital":false,"nationalCapital":false,"pk":null,"quiz":"europe","code":null,"archived":false,"percentageOfSessions":null}, {"name":"Karlı","state":"Edirne","territory":"","country":"Turkey","latitude":40.7438548,"longitude":26.5480649,"population":376,"stateCapital":false,"nationalCapital":false,"pk":null,"quiz":"europe","code":null,"archived":false,"percentageOfSessions":null}, {"name":"Kavacık","state":"Edirne","territory":"","country":"Turkey","latitude":41.185341,"longitude":26.6689185,"population":692,"stateCapital":false,"nationalCapital":false,"pk":null,"quiz":"europe","code":null,"archived":false,"percentageOfSessions":null}, {"name":"Kavakayazma","state":"Edirne","territory":"","country":"Turkey","latitude":41.1357424,"longitude":26.5290225,"population":171,"stateCapital":false,"nationalCapital":false,"pk":null,"quiz":"europe","code":null,"archived":false,"percentageOfSessions":null}, {"name":"Kavaklı","state":"Edirne","territory":"","country":"Turkey","latitude":41.7942004,"longitude":26.7528033,"population":71,"stateCapital":false,"nationalCapital":false,"pk":null,"quiz":"europe","code":null,"archived":false,"percentageOfSessions":null}, {"name":"Kavaklı","state":"Edirne","territory":"","country":"Turkey","latitude":41.2339756,"longitude":26.5224565,"population":366,"stateCapital":false,"nationalCapital":false,"pk":null,"quiz":"europe","code":null,"archived":false,"percentageOfSessions":null}, {"name":"Kayapa","state":"Edirne","territory":"","country":"Turkey","latitude":41.7749284,"longitude":26.6886318,"population":114,"stateCapital":false,"nationalCapital":false,"pk":null,"quiz":"europe","code":null,"archived":false,"percentageOfSessions":null}, {"name":"Kemal","state":"Edirne","territory":"","country":"Turkey","latitude":41.7354037,"longitude":26.3950257,"population":933,"stateCapital":false,"nationalCapital":false,"pk":null,"quiz":"europe","code":null,"archived":false,"percentageOfSessions":null}, {"name":"Keramettin","state":"Edirne","territory":"","country":"Turkey","latitude":41.787293,"longitude":26.976229,"population":326,"stateCapital":false,"nationalCapital":false,"pk":null,"quiz":"europe","code":null,"archived":false,"percentageOfSessions":null}, {"name":"Keşan","state":"Edirne","territory":"","country":"Turkey","latitude":40.8548793,"longitude":26.6303057,"population":63828,"stateCapital":false,"nationalCapital":false,"pk":null,"quiz":"europe","code":null,"archived":false,"percentageOfSessions":null}, {"name":"Kılıçköy","state":"Edirne","territory":"","country":"Turkey","latitude":40.784286,"longitude":26.5529326,"population":396,"stateCapital":false,"nationalCapital":false,"pk":null,"quiz":"europe","code":null,"archived":false,"percentageOfSessions":null}, {"name":"Kırcasalih","state":"Edirne","territory":"","country":"Turkey","latitude":41.394275,"longitude":26.8013093,"population":2723,"stateCapital":false,"nationalCapital":false,"pk":null,"quiz":"europe","code":null,"archived":false,"percentageOfSessions":null}, {"name":"Kiremitçisalih","state":"Edirne","territory":"","country":"Turkey","latitude":41.3110483,"longitude":26.6151573,"population":391,"stateCapital":false,"nationalCapital":false,"pk":null,"quiz":"europe","code":null,"archived":false,"percentageOfSessions":null}, {"name":"Kırkkavak","state":"Edirne","territory":"","country":"Turkey","latitude":41.212202,"longitude":26.7449677,"population":463,"stateCapital":false,"nationalCapital":false,"pk":null,"quiz":"europe","code":null,"archived":false,"percentageOfSessions":null}, {"name":"Kırköy","state":"Edirne","territory":"","country":"Turkey","latitude":41.1072861,"longitude":26.7218334,"population":270,"stateCapital":false,"nationalCapital":false,"pk":null,"quiz":"europe","code":null,"archived":false,"percentageOfSessions":null}, {"name":"Kızkapan","state":"Edirne","territory":"","country":"Turkey","latitude":40.7410263,"longitude":26.4870396,"population":185,"stateCapital":false,"nationalCapital":false,"pk":null,"quiz":"europe","code":null,"archived":false,"percentageOfSessions":null}, {"name":"Kocaali","state":"Edirne","territory":"","country":"Turkey","latitude":40.6656,"longitude":26.344624,"population":191,"stateCapital":false,"nationalCapital":false,"pk":null,"quiz":"europe","code":null,"archived":false,"percentageOfSessions":null}, {"name":"Kocahıdır","state":"Edirne","territory":"","country":"Turkey","latitude":40.8096773,"longitude":26.4051966,"population":999,"stateCapital":false,"nationalCapital":false,"pk":null,"quiz":"europe","code":null,"archived":false,"percentageOfSessions":null}, {"name":"Korucu","state":"Edirne","territory":"","country":"Turkey","latitude":41.7921585,"longitude":26.656305,"population":190,"stateCapital":false,"nationalCapital":false,"pk":null,"quiz":"europe","code":null,"archived":false,"percentageOfSessions":null}, {"name":"Korucu","state":"Edirne","territory":"","country":"Turkey","latitude":40.898306,"longitude":26.4964505,"population":384,"stateCapital":false,"nationalCapital":false,"pk":null,"quiz":"europe","code":null,"archived":false,"percentageOfSessions":null}, {"name":"Koruklu","state":"Edirne","territory":"","country":"Turkey","latitude":40.6533637,"longitude":26.4240087,"population":116,"stateCapital":false,"nationalCapital":false,"pk":null,"quiz":"europe","code":null,"archived":false,"percentageOfSessions":null}, {"name":"Köşençiftliği","state":"Edirne","territory":"","country":"Turkey","latitude":41.656952,"longitude":26.684008,"population":257,"stateCapital":false,"nationalCapital":false,"pk":null,"quiz":"europe","code":null,"archived":false,"percentageOfSessions":null}, {"name":"Köseömer","state":"Edirne","territory":"","country":"Turkey","latitude":41.5874326,"longitude":26.9033217,"population":308,"stateCapital":false,"nationalCapital":false,"pk":null,"quiz":"europe","code":null,"archived":false,"percentageOfSessions":null}, {"name":"Koyuntepe","state":"Edirne","territory":"","country":"Turkey","latitude":40.7672682,"longitude":26.344163,"population":1022,"stateCapital":false,"nationalCapital":false,"pk":null,"quiz":"europe","code":null,"archived":false,"percentageOfSessions":null}, {"name":"Kozköy","state":"Edirne","territory":"","country":"Turkey","latitude":41.0208845,"longitude":26.6097908,"population":407,"stateCapital":false,"nationalCapital":false,"pk":null,"quiz":"europe","code":null,"archived":false,"percentageOfSessions":null}, {"name":"Küçükaltıağaç","state":"Edirne","territory":"","country":"Turkey","latitude":41.120293,"longitude":26.426661,"population":274,"stateCapital":false,"nationalCapital":false,"pk":null,"quiz":"europe","code":null,"archived":false,"percentageOfSessions":null}, {"name":"Küçükdoğanca","state":"Edirne","territory":"","country":"Turkey","latitude":40.807182,"longitude":26.4286,"population":100,"stateCapital":false,"nationalCapital":false,"pk":null,"quiz":"europe","code":null,"archived":false,"percentageOfSessions":null}, {"name":"Küçükdoğanca","state":"Edirne","territory":"","country":"Turkey","latitude":40.9384864,"longitude":26.7113303,"population":304,"stateCapital":false,"nationalCapital":false,"pk":null,"quiz":"europe","code":null,"archived":false,"percentageOfSessions":null}, {"name":"Küçükdöllük","state":"Edirne","territory":"","country":"Turkey","latitude":41.7557498,"longitude":26.6679502,"population":139,"stateCapital":false,"nationalCapital":false,"pk":null,"quiz":"europe","code":null,"archived":false,"percentageOfSessions":null}, {"name":"Küçükevren","state":"Edirne","territory":"","country":"Turkey","latitude":40.6480317,"longitude":26.1820613,"population":202,"stateCapital":false,"nationalCapital":false,"pk":null,"quiz":"europe","code":null,"archived":false,"percentageOfSessions":null}, {"name":"Küçünlü","state":"Edirne","territory":"","country":"Turkey","latitude":41.9347185,"longitude":26.7666554,"population":194,"stateCapital":false,"nationalCapital":false,"pk":null,"quiz":"europe","code":null,"archived":false,"percentageOfSessions":null}, {"name":"Küküler","state":"Edirne","territory":"","country":"Turkey","latitude":41.715859,"longitude":26.895571,"population":176,"stateCapital":false,"nationalCapital":false,"pk":null,"quiz":"europe","code":null,"archived":false,"percentageOfSessions":null}, {"name":"Kulubalık","state":"Edirne","territory":"","country":"Turkey","latitude":41.471341,"longitude":26.8269605,"population":200,"stateCapital":false,"nationalCapital":false,"pk":null,"quiz":"europe","code":null,"archived":false,"percentageOfSessions":null}, {"name":"Kumdere","state":"Edirne","territory":"","country":"Turkey","latitude":40.866039,"longitude":26.367104,"population":878,"stateCapital":false,"nationalCapital":false,"pk":null,"quiz":"europe","code":null,"archived":false,"percentageOfSessions":null}, {"name":"Küpdere","state":"Edirne","territory":"","country":"Turkey","latitude":41.222385,"longitude":26.4660997,"population":122,"stateCapital":false,"nationalCapital":false,"pk":null,"quiz":"europe","code":null,"archived":false,"percentageOfSessions":null}, {"name":"Küplü","state":"Edirne","territory":"","country":"Turkey","latitude":41.1082168,"longitude":26.3509161,"population":2317,"stateCapital":false,"nationalCapital":false,"pk":null,"quiz":"europe","code":null,"archived":false,"percentageOfSessions":null}, {"name":"Kurdu","state":"Edirne","territory":"","country":"Turkey","latitude":41.3046265,"longitude":26.5720054,"population":215,"stateCapital":false,"nationalCapital":false,"pk":null,"quiz":"europe","code":null,"archived":false,"percentageOfSessions":null}, {"name":"Kurtbey","state":"Edirne","territory":"","country":"Turkey","latitude":41.1471672,"longitude":26.5786112,"population":1225,"stateCapital":false,"nationalCapital":false,"pk":null,"quiz":"europe","code":null,"archived":false,"percentageOfSessions":null}, {"name":"Kurttepe","state":"Edirne","territory":"","country":"Turkey","latitude":41.370403,"longitude":26.7011687,"population":91,"stateCapital":false,"nationalCapital":false,"pk":null,"quiz":"europe","code":null,"archived":false,"percentageOfSessions":null}, {"name":"Kuzucu","state":"Edirne","territory":"","country":"Turkey","latitude":41.506558,"longitude":26.812239,"population":302,"stateCapital":false,"nationalCapital":false,"pk":null,"quiz":"europe","code":null,"archived":false,"percentageOfSessions":null}, {"name":"Lalacık","state":"Edirne","territory":"","country":"Turkey","latitude":40.9731608,"longitude":26.6051402,"population":224,"stateCapital":false,"nationalCapital":false,"pk":null,"quiz":"europe","code":null,"archived":false,"percentageOfSessions":null}, {"name":"Lalapaşa","state":"Edirne","territory":"","country":"Turkey","latitude":41.8399008,"longitude":26.7345285,"population":1671,"stateCapital":false,"nationalCapital":false,"pk":null,"quiz":"europe","code":null,"archived":false,"percentageOfSessions":null}, {"name":"Mahmutköy","state":"Edirne","territory":"","country":"Turkey","latitude":40.759468,"longitude":26.7443485,"population":449,"stateCapital":false,"nationalCapital":false,"pk":null,"quiz":"europe","code":null,"archived":false,"percentageOfSessions":null}, {"name":"Maksutlu","state":"Edirne","territory":"","country":"Turkey","latitude":41.1195384,"longitude":26.6936701,"population":483,"stateCapital":false,"nationalCapital":false,"pk":null,"quiz":"europe","code":null,"archived":false,"percentageOfSessions":null}, {"name":"Malkoç","state":"Edirne","territory":"","country":"Turkey","latitude":41.2740525,"longitude":26.7671241,"population":359,"stateCapital":false,"nationalCapital":false,"pk":null,"quiz":"europe","code":null,"archived":false,"percentageOfSessions":null}, {"name":"Maltepe","state":"Edirne","territory":"","country":"Turkey","latitude":40.9875694,"longitude":26.6402979,"population":307,"stateCapital":false,"nationalCapital":false,"pk":null,"quiz":"europe","code":null,"archived":false,"percentageOfSessions":null}, {"name":"Mecidiye","state":"Edirne","territory":"","country":"Turkey","latitude":40.6425331,"longitude":26.5390817,"population":811,"stateCapital":false,"nationalCapital":false,"pk":null,"quiz":"europe","code":null,"archived":false,"percentageOfSessions":null}, {"name":"Menekşesofular","state":"Edirne","territory":"","country":"Turkey","latitude":41.7631604,"longitude":26.6406296,"population":197,"stateCapital":false,"nationalCapital":false,"pk":null,"quiz":"europe","code":null,"archived":false,"percentageOfSessions":null}, {"name":"Mercan","state":"Edirne","territory":"","country":"Turkey","latitude":40.7477251,"longitude":26.6033579,"population":91,"stateCapital":false,"nationalCapital":false,"pk":null,"quiz":"europe","code":null,"archived":false,"percentageOfSessions":null}, {"name":"Meriç","state":"Edirne","territory":"","country":"Turkey","latitude":41.1913411,"longitude":26.42008,"population":2953,"stateCapital":false,"nationalCapital":false,"pk":null,"quiz":"europe","code":null,"archived":false,"percentageOfSessions":null}, {"name":"Meşeli","state":"Edirne","territory":"","country":"Turkey","latitude":41.3890625,"longitude":26.7264042,"population":100,"stateCapital":false,"nationalCapital":false,"pk":null,"quiz":"europe","code":null,"archived":false,"percentageOfSessions":null}, {"name":"Muhacırkadı","state":"Edirne","territory":"","country":"Turkey","latitude":41.3316551,"longitude":26.8769162,"population":272,"stateCapital":false,"nationalCapital":false,"pk":null,"quiz":"europe","code":null,"archived":false,"percentageOfSessions":null}, {"name":"Muratçalı","state":"Edirne","territory":"","country":"Turkey","latitude":41.8045916,"longitude":26.6163167,"population":154,"stateCapital":false,"nationalCapital":false,"pk":null,"quiz":"europe","code":null,"archived":false,"percentageOfSessions":null}, {"name":"Musabeyli","state":"Edirne","territory":"","country":"Turkey","latitude":41.697121,"longitude":26.661238,"population":380,"stateCapital":false,"nationalCapital":false,"pk":null,"quiz":"europe","code":null,"archived":false,"percentageOfSessions":null}, {"name":"Musulca","state":"Edirne","territory":"","country":"Turkey","latitude":41.6742534,"longitude":26.8636883,"population":286,"stateCapital":false,"nationalCapital":false,"pk":null,"quiz":"europe","code":null,"archived":false,"percentageOfSessions":null}, {"name":"Naipyusuf","state":"Edirne","territory":"","country":"Turkey","latitude":41.4839143,"longitude":26.9046998,"population":467,"stateCapital":false,"nationalCapital":false,"pk":null,"quiz":"europe","code":null,"archived":false,"percentageOfSessions":null}, {"name":"Nasuhbey","state":"Edirne","territory":"","country":"Turkey","latitude":41.215674,"longitude":26.3454736,"population":262,"stateCapital":false,"nationalCapital":false,"pk":null,"quiz":"europe","code":null,"archived":false,"percentageOfSessions":null}, {"name":"Necatiye","state":"Edirne","territory":"","country":"Turkey","latitude":41.5006445,"longitude":26.9005173,"population":565,"stateCapital":false,"nationalCapital":false,"pk":null,"quiz":"europe","code":null,"archived":false,"percentageOfSessions":null}, {"name":"Oğulpaşa","state":"Edirne","territory":"","country":"Turkey","latitude":41.6011466,"longitude":26.7495262,"population":851,"stateCapital":false,"nationalCapital":false,"pk":null,"quiz":"europe","code":null,"archived":false,"percentageOfSessions":null}, {"name":"Olacak","state":"Edirne","territory":"","country":"Turkey","latitude":41.2153835,"longitude":26.4742625,"population":159,"stateCapital":false,"nationalCapital":false,"pk":null,"quiz":"europe","code":null,"archived":false,"percentageOfSessions":null}, {"name":"Ömerbey","state":"Edirne","territory":"","country":"Turkey","latitude":41.2671528,"longitude":26.8371825,"population":201,"stateCapital":false,"nationalCapital":false,"pk":null,"quiz":"europe","code":null,"archived":false,"percentageOfSessions":null}, {"name":"Ömeroba","state":"Edirne","territory":"","country":"Turkey","latitude":41.9234269,"longitude":26.9291393,"population":241,"stateCapital":false,"nationalCapital":false,"pk":null,"quiz":"europe","code":null,"archived":false,"percentageOfSessions":null}, {"name":"Orhaniye","state":"Edirne","territory":"","country":"Turkey","latitude":41.514778,"longitude":26.652922,"population":570,"stateCapital":false,"nationalCapital":false,"pk":null,"quiz":"europe","code":null,"archived":false,"percentageOfSessions":null}, {"name":"Orhaniye","state":"Edirne","territory":"","country":"Turkey","latitude":40.7324088,"longitude":26.4326783,"population":328,"stateCapital":false,"nationalCapital":false,"pk":null,"quiz":"europe","code":null,"archived":false,"percentageOfSessions":null}, {"name":"Ortakçı","state":"Edirne","territory":"","country":"Turkey","latitude":41.785013,"longitude":26.7356784,"population":282,"stateCapital":false,"nationalCapital":false,"pk":null,"quiz":"europe","code":null,"archived":false,"percentageOfSessions":null}, {"name":"Osmanlı","state":"Edirne","territory":"","country":"Turkey","latitude":41.58865,"longitude":26.8359387,"population":994,"stateCapital":false,"nationalCapital":false,"pk":null,"quiz":"europe","code":null,"archived":false,"percentageOfSessions":null}, {"name":"Paşaköy","state":"Edirne","territory":"","country":"Turkey","latitude":40.849365,"longitude":26.320835,"population":987,"stateCapital":false,"nationalCapital":false,"pk":null,"quiz":"europe","code":null,"archived":false,"percentageOfSessions":null}, {"name":"Paşayenice","state":"Edirne","territory":"","country":"Turkey","latitude":41.1983683,"longitude":26.554879,"population":87,"stateCapital":false,"nationalCapital":false,"pk":null,"quiz":"europe","code":null,"archived":false,"percentageOfSessions":null}, {"name":"Paşayiğit","state":"Edirne","territory":"","country":"Turkey","latitude":40.9598042,"longitude":26.6353111,"population":1342,"stateCapital":false,"nationalCapital":false,"pk":null,"quiz":"europe","code":null,"archived":false,"percentageOfSessions":null}, {"name":"Pazardere","state":"Edirne","territory":"","country":"Turkey","latitude":40.97942,"longitude":26.580414,"population":444,"stateCapital":false,"nationalCapital":false,"pk":null,"quiz":"europe","code":null,"archived":false,"percentageOfSessions":null}, {"name":"Pırnar","state":"Edirne","territory":"","country":"Turkey","latitude":40.7078628,"longitude":26.6380922,"population":375,"stateCapital":false,"nationalCapital":false,"pk":null,"quiz":"europe","code":null,"archived":false,"percentageOfSessions":null}, {"name":"Rahmanca","state":"Edirne","territory":"","country":"Turkey","latitude":41.283546,"longitude":26.48962,"population":246,"stateCapital":false,"nationalCapital":false,"pk":null,"quiz":"europe","code":null,"archived":false,"percentageOfSessions":null}, {"name":"Saatağacı","state":"Edirne","territory":"","country":"Turkey","latitude":41.1659887,"longitude":26.5085519,"population":136,"stateCapital":false,"nationalCapital":false,"pk":null,"quiz":"europe","code":null,"archived":false,"percentageOfSessions":null}, {"name":"Şabanmera","state":"Edirne","territory":"","country":"Turkey","latitude":40.6792493,"longitude":26.4079493,"population":228,"stateCapital":false,"nationalCapital":false,"pk":null,"quiz":"europe","code":null,"archived":false,"percentageOfSessions":null}, {"name":"Saçlımüsellim","state":"Edirne","territory":"","country":"Turkey","latitude":41.4230339,"longitude":26.6313434,"population":91,"stateCapital":false,"nationalCapital":false,"pk":null,"quiz":"europe","code":null,"archived":false,"percentageOfSessions":null}, {"name":"Saksağan","state":"Edirne","territory":"","country":"Turkey","latitude":41.8768019,"longitude":26.6045915,"population":29,"stateCapital":false,"nationalCapital":false,"pk":null,"quiz":"europe","code":null,"archived":false,"percentageOfSessions":null}, {"name":"Salarlı","state":"Edirne","territory":"","country":"Turkey","latitude":41.2265014,"longitude":26.6285719,"population":723,"stateCapital":false,"nationalCapital":false,"pk":null,"quiz":"europe","code":null,"archived":false,"percentageOfSessions":null}, {"name":"Sarayakpınar","state":"Edirne","territory":"","country":"Turkey","latitude":41.7794043,"longitude":26.4802027,"population":237,"stateCapital":false,"nationalCapital":false,"pk":null,"quiz":"europe","code":null,"archived":false,"percentageOfSessions":null}, {"name":"Sarıcaali","state":"Edirne","territory":"","country":"Turkey","latitude":40.985455,"longitude":26.383383,"population":606,"stateCapital":false,"nationalCapital":false,"pk":null,"quiz":"europe","code":null,"archived":false,"percentageOfSessions":null}, {"name":"Sarıdanişment","state":"Edirne","territory":"","country":"Turkey","latitude":41.8660278,"longitude":26.8288254,"population":253,"stateCapital":false,"nationalCapital":false,"pk":null,"quiz":"europe","code":null,"archived":false,"percentageOfSessions":null}, {"name":"Sarpdere","state":"Edirne","territory":"","country":"Turkey","latitude":40.88673,"longitude":26.4321511,"population":427,"stateCapital":false,"nationalCapital":false,"pk":null,"quiz":"europe","code":null,"archived":false,"percentageOfSessions":null}, {"name":"Sazlıdere","state":"Edirne","territory":"","country":"Turkey","latitude":41.610169,"longitude":26.679438,"population":547,"stateCapital":false,"nationalCapital":false,"pk":null,"quiz":"europe","code":null,"archived":false,"percentageOfSessions":null}, {"name":"Sazlıdere","state":"Edirne","territory":"","country":"Turkey","latitude":40.6595669,"longitude":26.6853827,"population":224,"stateCapital":false,"nationalCapital":false,"pk":null,"quiz":"europe","code":null,"archived":false,"percentageOfSessions":null}, {"name":"Sazlımalkoç","state":"Edirne","territory":"","country":"Turkey","latitude":41.3580929,"longitude":26.8781628,"population":340,"stateCapital":false,"nationalCapital":false,"pk":null,"quiz":"europe","code":null,"archived":false,"percentageOfSessions":null}, {"name":"Şehitler","state":"Edirne","territory":"","country":"Turkey","latitude":40.690861,"longitude":26.292047,"population":256,"stateCapital":false,"nationalCapital":false,"pk":null,"quiz":"europe","code":null,"archived":false,"percentageOfSessions":null}, {"name":"Şerbettar","state":"Edirne","territory":"","country":"Turkey","latitude":41.4600779,"longitude":26.7573126,"population":761,"stateCapital":false,"nationalCapital":false,"pk":null,"quiz":"europe","code":null,"archived":false,"percentageOfSessions":null}, {"name":"Serem","state":"Edirne","territory":"","country":"Turkey","latitude":41.3136675,"longitude":26.5148268,"population":294,"stateCapital":false,"nationalCapital":false,"pk":null,"quiz":"europe","code":null,"archived":false,"percentageOfSessions":null}, {"name":"Seydiköy","state":"Edirne","territory":"","country":"Turkey","latitude":40.7898724,"longitude":26.7336817,"population":188,"stateCapital":false,"nationalCapital":false,"pk":null,"quiz":"europe","code":null,"archived":false,"percentageOfSessions":null}, {"name":"Siğilli","state":"Edirne","territory":"","country":"Turkey","latitude":40.8146008,"longitude":26.5962162,"population":821,"stateCapital":false,"nationalCapital":false,"pk":null,"quiz":"europe","code":null,"archived":false,"percentageOfSessions":null}, {"name":"Sığırcılı","state":"Edirne","territory":"","country":"Turkey","latitude":41.406261,"longitude":26.6411867,"population":221,"stateCapital":false,"nationalCapital":false,"pk":null,"quiz":"europe","code":null,"archived":false,"percentageOfSessions":null}, {"name":"Sinanköy","state":"Edirne","territory":"","country":"Turkey","latitude":41.8159591,"longitude":26.6988876,"population":364,"stateCapital":false,"nationalCapital":false,"pk":null,"quiz":"europe","code":null,"archived":false,"percentageOfSessions":null}, {"name":"Sipahi","state":"Edirne","territory":"","country":"Turkey","latitude":41.2283623,"longitude":26.8917587,"population":300,"stateCapital":false,"nationalCapital":false,"pk":null,"quiz":"europe","code":null,"archived":false,"percentageOfSessions":null}, {"name":"Söğütlüdere","state":"Edirne","territory":"","country":"Turkey","latitude":41.6359202,"longitude":26.8054306,"population":203,"stateCapital":false,"nationalCapital":false,"pk":null,"quiz":"europe","code":null,"archived":false,"percentageOfSessions":null}, {"name":"Suakacağı","state":"Edirne","territory":"","country":"Turkey","latitude":41.8407474,"longitude":26.5865363,"population":80,"stateCapital":false,"nationalCapital":false,"pk":null,"quiz":"europe","code":null,"archived":false,"percentageOfSessions":null}, {"name":"Subaşı","state":"Edirne","territory":"","country":"Turkey","latitude":41.1432301,"longitude":26.3748377,"population":1952,"stateCapital":false,"nationalCapital":false,"pk":null,"quiz":"europe","code":null,"archived":false,"percentageOfSessions":null}, {"name":"Şükrüköy","state":"Edirne","territory":"","country":"Turkey","latitude":40.7886289,"longitude":26.7171489,"population":192,"stateCapital":false,"nationalCapital":false,"pk":null,"quiz":"europe","code":null,"archived":false,"percentageOfSessions":null}, {"name":"Sülecik","state":"Edirne","territory":"","country":"Turkey","latitude":41.8148759,"longitude":26.8502134,"population":165,"stateCapital":false,"nationalCapital":false,"pk":null,"quiz":"europe","code":null,"archived":false,"percentageOfSessions":null}, {"name":"Süleymandanişment","state":"Edirne","territory":"","country":"Turkey","latitude":41.8969797,"longitude":26.8895824,"population":229,"stateCapital":false,"nationalCapital":false,"pk":null,"quiz":"europe","code":null,"archived":false,"percentageOfSessions":null}, {"name":"Süleymaniye","state":"Edirne","territory":"","country":"Turkey","latitude":41.1211684,"longitude":26.8041135,"population":477,"stateCapital":false,"nationalCapital":false,"pk":null,"quiz":"europe","code":null,"archived":false,"percentageOfSessions":null}, {"name":"Süloğlu","state":"Edirne","territory":"","country":"Turkey","latitude":41.7656982,"longitude":26.9080072,"population":3912,"stateCapital":false,"nationalCapital":false,"pk":null,"quiz":"europe","code":null,"archived":false,"percentageOfSessions":null}, {"name":"Sultan","state":"Edirne","territory":"","country":"Turkey","latitude":41.025162,"longitude":26.453489,"population":1216,"stateCapital":false,"nationalCapital":false,"pk":null,"quiz":"europe","code":null,"archived":false,"percentageOfSessions":null}, {"name":"Sultaniçe","state":"Edirne","territory":"","country":"Turkey","latitude":40.625454,"longitude":26.153734,"population":981,"stateCapital":false,"nationalCapital":false,"pk":null,"quiz":"europe","code":null,"archived":false,"percentageOfSessions":null}, {"name":"Sultanşah","state":"Edirne","territory":"","country":"Turkey","latitude":41.2501854,"longitude":26.8870166,"population":248,"stateCapital":false,"nationalCapital":false,"pk":null,"quiz":"europe","code":null,"archived":false,"percentageOfSessions":null}, {"name":"Suluca","state":"Edirne","territory":"","country":"Turkey","latitude":40.6886107,"longitude":26.4638315,"population":368,"stateCapital":false,"nationalCapital":false,"pk":null,"quiz":"europe","code":null,"archived":false,"percentageOfSessions":null}, {"name":"Sütçüler","state":"Edirne","territory":"","country":"Turkey","latitude":40.711473,"longitude":26.3191665,"population":179,"stateCapital":false,"nationalCapital":false,"pk":null,"quiz":"europe","code":null,"archived":false,"percentageOfSessions":null}, {"name":"Tahal","state":"Edirne","territory":"","country":"Turkey","latitude":41.4258894,"longitude":26.8562753,"population":208,"stateCapital":false,"nationalCapital":false,"pk":null,"quiz":"europe","code":null,"archived":false,"percentageOfSessions":null}, {"name":"Taptık","state":"Edirne","territory":"","country":"Turkey","latitude":41.543251,"longitude":26.911213,"population":487,"stateCapital":false,"nationalCapital":false,"pk":null,"quiz":"europe","code":null,"archived":false,"percentageOfSessions":null}, {"name":"Taşlımüsellim","state":"Edirne","territory":"","country":"Turkey","latitude":41.8234669,"longitude":26.7703754,"population":234,"stateCapital":false,"nationalCapital":false,"pk":null,"quiz":"europe","code":null,"archived":false,"percentageOfSessions":null}, {"name":"Taşlısekban","state":"Edirne","territory":"","country":"Turkey","latitude":41.803295,"longitude":26.877626,"population":266,"stateCapital":false,"nationalCapital":false,"pk":null,"quiz":"europe","code":null,"archived":false,"percentageOfSessions":null}, {"name":"Tatarlar","state":"Edirne","territory":"","country":"Turkey","latitude":41.835865,"longitude":26.886011,"population":331,"stateCapital":false,"nationalCapital":false,"pk":null,"quiz":"europe","code":null,"archived":false,"percentageOfSessions":null}, {"name":"Tayakadın","state":"Edirne","territory":"","country":"Turkey","latitude":41.575623,"longitude":26.660427,"population":1536,"stateCapital":false,"nationalCapital":false,"pk":null,"quiz":"europe","code":null,"archived":false,"percentageOfSessions":null}, {"name":"Tevfikiye","state":"Edirne","territory":"","country":"Turkey","latitude":41.0636385,"longitude":26.4938268,"population":178,"stateCapital":false,"nationalCapital":false,"pk":null,"quiz":"europe","code":null,"archived":false,"percentageOfSessions":null}, {"name":"Tuğlalık","state":"Edirne","territory":"","country":"Turkey","latitude":41.9245138,"longitude":26.6154847,"population":70,"stateCapital":false,"nationalCapital":false,"pk":null,"quiz":"europe","code":null,"archived":false,"percentageOfSessions":null}, {"name":"Türkmen","state":"Edirne","territory":"","country":"Turkey","latitude":40.8062855,"longitude":26.505064,"population":989,"stateCapital":false,"nationalCapital":false,"pk":null,"quiz":"europe","code":null,"archived":false,"percentageOfSessions":null}, {"name":"Türkobası","state":"Edirne","territory":"","country":"Turkey","latitude":41.0933345,"longitude":26.6096793,"population":220,"stateCapital":false,"nationalCapital":false,"pk":null,"quiz":"europe","code":null,"archived":false,"percentageOfSessions":null}, {"name":"Turnacı","state":"Edirne","territory":"","country":"Turkey","latitude":41.2527882,"longitude":26.9250389,"population":252,"stateCapital":false,"nationalCapital":false,"pk":null,"quiz":"europe","code":null,"archived":false,"percentageOfSessions":null}, {"name":"Turpçular","state":"Edirne","territory":"","country":"Turkey","latitude":40.941803,"longitude":26.43816,"population":563,"stateCapital":false,"nationalCapital":false,"pk":null,"quiz":"europe","code":null,"archived":false,"percentageOfSessions":null}, {"name":"Umurbey","state":"Edirne","territory":"","country":"Turkey","latitude":40.6697117,"longitude":26.2352938,"population":57,"stateCapital":false,"nationalCapital":false,"pk":null,"quiz":"europe","code":null,"archived":false,"percentageOfSessions":null}, {"name":"Umurca","state":"Edirne","territory":"","country":"Turkey","latitude":41.2004188,"longitude":26.3583482,"population":268,"stateCapital":false,"nationalCapital":false,"pk":null,"quiz":"europe","code":null,"archived":false,"percentageOfSessions":null}, {"name":"Üyüklütatar","state":"Edirne","territory":"","country":"Turkey","latitude":41.544365,"longitude":26.610935,"population":595,"stateCapital":false,"nationalCapital":false,"pk":null,"quiz":"europe","code":null,"archived":false,"percentageOfSessions":null}, {"name":"Uzgaç","state":"Edirne","territory":"","country":"Turkey","latitude":41.7924572,"longitude":26.4366667,"population":104,"stateCapital":false,"nationalCapital":false,"pk":null,"quiz":"europe","code":null,"archived":false,"percentageOfSessions":null}, {"name":"Uzunbayır","state":"Edirne","territory":"","country":"Turkey","latitude":41.9273315,"longitude":26.5920017,"population":91,"stateCapital":false,"nationalCapital":false,"pk":null,"quiz":"europe","code":null,"archived":false,"percentageOfSessions":null}, {"name":"Uzunköprü","state":"Edirne","territory":"","country":"Turkey","latitude":41.2626058,"longitude":26.6855961,"population":39753,"stateCapital":false,"nationalCapital":false,"pk":null,"quiz":"europe","code":null,"archived":false,"percentageOfSessions":null}, {"name":"Vakıf","state":"Edirne","territory":"","country":"Turkey","latitude":40.616291,"longitude":26.257708,"population":366,"stateCapital":false,"nationalCapital":false,"pk":null,"quiz":"europe","code":null,"archived":false,"percentageOfSessions":null}, {"name":"Vaysal","state":"Edirne","territory":"","country":"Turkey","latitude":41.9420655,"longitude":26.8717184,"population":403,"stateCapital":false,"nationalCapital":false,"pk":null,"quiz":"europe","code":null,"archived":false,"percentageOfSessions":null}, {"name":"Yağcılı","state":"Edirne","territory":"","country":"Turkey","latitude":41.7837392,"longitude":26.8289237,"population":242,"stateCapital":false,"nationalCapital":false,"pk":null,"quiz":"europe","code":null,"archived":false,"percentageOfSessions":null}, {"name":"Yağmurca","state":"Edirne","territory":"","country":"Turkey","latitude":41.1686262,"longitude":26.8638825,"population":702,"stateCapital":false,"nationalCapital":false,"pk":null,"quiz":"europe","code":null,"archived":false,"percentageOfSessions":null}, {"name":"Yakupbey","state":"Edirne","territory":"","country":"Turkey","latitude":41.239536,"longitude":26.554531,"population":132,"stateCapital":false,"nationalCapital":false,"pk":null,"quiz":"europe","code":null,"archived":false,"percentageOfSessions":null}, {"name":"Yapıldak","state":"Edirne","territory":"","country":"Turkey","latitude":40.7929118,"longitude":26.4428258,"population":358,"stateCapital":false,"nationalCapital":false,"pk":null,"quiz":"europe","code":null,"archived":false,"percentageOfSessions":null}, {"name":"Yaylaköy","state":"Edirne","territory":"","country":"Turkey","latitude":40.6301713,"longitude":26.3907117,"population":544,"stateCapital":false,"nationalCapital":false,"pk":null,"quiz":"europe","code":null,"archived":false,"percentageOfSessions":null}, {"name":"Yazır","state":"Edirne","territory":"","country":"Turkey","latitude":40.696858,"longitude":26.233908,"population":121,"stateCapital":false,"nationalCapital":false,"pk":null,"quiz":"europe","code":null,"archived":false,"percentageOfSessions":null}, {"name":"Yenice","state":"Edirne","territory":"","country":"Turkey","latitude":40.7002882,"longitude":26.1492201,"population":799,"stateCapital":false,"nationalCapital":false,"pk":null,"quiz":"europe","code":null,"archived":false,"percentageOfSessions":null}, {"name":"Yeniceçiftlik","state":"Edirne","territory":"","country":"Turkey","latitude":40.8743457,"longitude":26.5717418,"population":227,"stateCapital":false,"nationalCapital":false,"pk":null,"quiz":"europe","code":null,"archived":false,"percentageOfSessions":null}, {"name":"Yenicegörüce","state":"Edirne","territory":"","country":"Turkey","latitude":41.1310847,"longitude":26.4677754,"population":353,"stateCapital":false,"nationalCapital":false,"pk":null,"quiz":"europe","code":null,"archived":false,"percentageOfSessions":null}, {"name":"Yenikadın","state":"Edirne","territory":"","country":"Turkey","latitude":41.698437,"longitude":26.437388,"population":427,"stateCapital":false,"nationalCapital":false,"pk":null,"quiz":"europe","code":null,"archived":false,"percentageOfSessions":null}, {"name":"Yenikarpuzlu","state":"Edirne","territory":"","country":"Turkey","latitude":40.8307567,"longitude":26.2944164,"population":3064,"stateCapital":false,"nationalCapital":false,"pk":null,"quiz":"europe","code":null,"archived":false,"percentageOfSessions":null}, {"name":"Yeniköy","state":"Edirne","territory":"","country":"Turkey","latitude":41.3427692,"longitude":26.7660443,"population":794,"stateCapital":false,"nationalCapital":false,"pk":null,"quiz":"europe","code":null,"archived":false,"percentageOfSessions":null}, {"name":"Yenimuhacir","state":"Edirne","territory":"","country":"Turkey","latitude":40.8584203,"longitude":26.6951873,"population":2027,"stateCapital":false,"nationalCapital":false,"pk":null,"quiz":"europe","code":null,"archived":false,"percentageOfSessions":null}, {"name":"Yerlisu","state":"Edirne","territory":"","country":"Turkey","latitude":40.7256862,"longitude":26.7288691,"population":137,"stateCapital":false,"nationalCapital":false,"pk":null,"quiz":"europe","code":null,"archived":false,"percentageOfSessions":null}, {"name":"Yeşilköy","state":"Edirne","territory":"","country":"Turkey","latitude":40.7097865,"longitude":26.5181925,"population":123,"stateCapital":false,"nationalCapital":false,"pk":null,"quiz":"europe","code":null,"archived":false,"percentageOfSessions":null}, {"name":"Yolageldi","state":"Edirne","territory":"","country":"Turkey","latitude":41.520561,"longitude":26.949383,"population":662,"stateCapital":false,"nationalCapital":false,"pk":null,"quiz":"europe","code":null,"archived":false,"percentageOfSessions":null}, {"name":"Yolüstü","state":"Edirne","territory":"","country":"Turkey","latitude":41.79646,"longitude":26.558074,"population":297,"stateCapital":false,"nationalCapital":false,"pk":null,"quiz":"europe","code":null,"archived":false,"percentageOfSessions":null}, {"name":"Yünlüce","state":"Edirne","territory":"","country":"Turkey","latitude":41.8531776,"longitude":26.6334586,"population":78,"stateCapital":false,"nationalCapital":false,"pk":null,"quiz":"europe","code":null,"archived":false,"percentageOfSessions":null}, {"name":"Akalan","state":"İstanbul","territory":"","country":"Turkey","latitude":41.257679,"longitude":28.419617,"population":1052,"stateCapital":false,"nationalCapital":false,"pk":null,"quiz":"europe","code":null,"archived":false,"percentageOfSessions":null}, {"name":"Akören","state":"İstanbul","territory":"","country":"Turkey","latitude":41.1961748,"longitude":28.3362078,"population":1312,"stateCapital":false,"nationalCapital":false,"pk":null,"quiz":"europe","code":null,"archived":false,"percentageOfSessions":null}, {"name":"Arnavutköy","state":"İstanbul","territory":"","country":"Turkey","latitude":41.184471,"longitude":28.7412446,"population":272868,"stateCapital":false,"nationalCapital":false,"pk":null,"quiz":"europe","code":null,"archived":false,"percentageOfSessions":null}, {"name":"Aydınlar","state":"İstanbul","territory":"","country":"Turkey","latitude":41.3750651,"longitude":28.2055315,"population":826,"stateCapital":false,"nationalCapital":false,"pk":null,"quiz":"europe","code":null,"archived":false,"percentageOfSessions":null}, {"name":"Baklalı","state":"İstanbul","territory":"","country":"Turkey","latitude":41.258862,"longitude":28.652605,"population":881,"stateCapital":false,"nationalCapital":false,"pk":null,"quiz":"europe","code":null,"archived":false,"percentageOfSessions":null}, {"name":"Balaban","state":"İstanbul","territory":"","country":"Turkey","latitude":41.3098086,"longitude":28.6137897,"population":460,"stateCapital":false,"nationalCapital":false,"pk":null,"quiz":"europe","code":null,"archived":false,"percentageOfSessions":null}, {"name":"Başak","state":"İstanbul","territory":"","country":"Turkey","latitude":41.332951,"longitude":28.445322,"population":368,"stateCapital":false,"nationalCapital":false,"pk":null,"quiz":"europe","code":null,"archived":false,"percentageOfSessions":null}, {"name":"Bekirli","state":"İstanbul","territory":"","country":"Turkey","latitude":41.2268861,"longitude":28.2992806,"population":197,"stateCapital":false,"nationalCapital":false,"pk":null,"quiz":"europe","code":null,"archived":false,"percentageOfSessions":null}, {"name":"Belgrat","state":"İstanbul","territory":"","country":"Turkey","latitude":41.3784267,"longitude":28.3840477,"population":360,"stateCapital":false,"nationalCapital":false,"pk":null,"quiz":"europe","code":null,"archived":false,"percentageOfSessions":null}, {"name":"Beyciler","state":"İstanbul","territory":"","country":"Turkey","latitude":41.235941,"longitude":28.115909,"population":1381,"stateCapital":false,"nationalCapital":false,"pk":null,"quiz":"europe","code":null,"archived":false,"percentageOfSessions":null}, {"name":"Binkılıç","state":"İstanbul","territory":"","country":"Turkey","latitude":41.413624,"longitude":28.1855366,"population":2487,"stateCapital":false,"nationalCapital":false,"pk":null,"quiz":"europe","code":null,"archived":false,"percentageOfSessions":null}, {"name":"Boğazköy","state":"İstanbul","territory":"","country":"Turkey","latitude":41.1816651,"longitude":28.7738364,"population":35852,"stateCapital":false,"nationalCapital":false,"pk":null,"quiz":"europe","code":null,"archived":false,"percentageOfSessions":null}, {"name":"Bolluca","state":"İstanbul","territory":"","country":"Turkey","latitude":41.2222213,"longitude":28.7785056,"population":18705,"stateCapital":false,"nationalCapital":false,"pk":null,"quiz":"europe","code":null,"archived":false,"percentageOfSessions":null}, {"name":"Boyalık","state":"İstanbul","territory":"","country":"Turkey","latitude":41.2634653,"longitude":28.6293234,"population":697,"stateCapital":false,"nationalCapital":false,"pk":null,"quiz":"europe","code":null,"archived":false,"percentageOfSessions":null}, {"name":"Büyük Kılıçlı","state":"İstanbul","territory":"","country":"Turkey","latitude":41.163228,"longitude":28.190187,"population":1160,"stateCapital":false,"nationalCapital":false,"pk":null,"quiz":"europe","code":null,"archived":false,"percentageOfSessions":null}, {"name":"Büyük Sinekli","state":"İstanbul","territory":"","country":"Turkey","latitude":41.2246766,"longitude":28.2107625,"population":407,"stateCapital":false,"nationalCapital":false,"pk":null,"quiz":"europe","code":null,"archived":false,"percentageOfSessions":null}, {"name":"Büyükçavuşlu","state":"İstanbul","territory":"","country":"Turkey","latitude":41.2251004,"longitude":28.0467837,"population":3292,"stateCapital":false,"nationalCapital":false,"pk":null,"quiz":"europe","code":null,"archived":false,"percentageOfSessions":null}, {"name":"Çanakça","state":"İstanbul","territory":"","country":"Turkey","latitude":41.245892,"longitude":28.49407,"population":2600,"stateCapital":false,"nationalCapital":false,"pk":null,"quiz":"europe","code":null,"archived":false,"percentageOfSessions":null}, {"name":"Çanta","state":"İstanbul","territory":"","country":"Turkey","latitude":41.080669,"longitude":28.082397,"population":9101,"stateCapital":false,"nationalCapital":false,"pk":null,"quiz":"europe","code":null,"archived":false,"percentageOfSessions":null}, {"name":"Çatalca","state":"İstanbul","territory":"","country":"Turkey","latitude":41.1436804,"longitude":28.4605154,"population":47162,"stateCapital":false,"nationalCapital":false,"pk":null,"quiz":"europe","code":null,"archived":false,"percentageOfSessions":null}, {"name":"Çayırdere","state":"İstanbul","territory":"","country":"Turkey","latitude":41.281857,"longitude":28.144777,"population":1238,"stateCapital":false,"nationalCapital":false,"pk":null,"quiz":"europe","code":null,"archived":false,"percentageOfSessions":null}, {"name":"Celepköy","state":"İstanbul","territory":"","country":"Turkey","latitude":41.3654071,"longitude":28.4997591,"population":273,"stateCapital":false,"nationalCapital":false,"pk":null,"quiz":"europe","code":null,"archived":false,"percentageOfSessions":null}, {"name":"Çeltik","state":"İstanbul","territory":"","country":"Turkey","latitude":41.1100776,"longitude":28.1191803,"population":937,"stateCapital":false,"nationalCapital":false,"pk":null,"quiz":"europe","code":null,"archived":false,"percentageOfSessions":null}, {"name":"Çiftlik","state":"İstanbul","territory":"","country":"Turkey","latitude":41.0678014,"longitude":28.4813261,"population":1915,"stateCapital":false,"nationalCapital":false,"pk":null,"quiz":"europe","code":null,"archived":false,"percentageOfSessions":null}, {"name":"Dağyenice","state":"İstanbul","territory":"","country":"Turkey","latitude":41.273354,"longitude":28.482552,"population":740,"stateCapital":false,"nationalCapital":false,"pk":null,"quiz":"europe","code":null,"archived":false,"percentageOfSessions":null}, {"name":"Danamandıra","state":"İstanbul","territory":"","country":"Turkey","latitude":41.307926,"longitude":28.242407,"population":1072,"stateCapital":false,"nationalCapital":false,"pk":null,"quiz":"europe","code":null,"archived":false,"percentageOfSessions":null}, {"name":"Değirmen","state":"İstanbul","territory":"","country":"Turkey","latitude":41.2186004,"longitude":28.0972189,"population":6260,"stateCapital":false,"nationalCapital":false,"pk":null,"quiz":"europe","code":null,"archived":false,"percentageOfSessions":null}, {"name":"Durusu","state":"İstanbul","territory":"","country":"Turkey","latitude":41.300846,"longitude":28.6774858,"population":1655,"stateCapital":false,"nationalCapital":false,"pk":null,"quiz":"europe","code":null,"archived":false,"percentageOfSessions":null}, {"name":"Elbasan","state":"İstanbul","territory":"","country":"Turkey","latitude":41.139164,"longitude":28.415209,"population":587,"stateCapital":false,"nationalCapital":false,"pk":null,"quiz":"europe","code":null,"archived":false,"percentageOfSessions":null}, {"name":"Fener","state":"İstanbul","territory":"","country":"Turkey","latitude":41.1504819,"longitude":28.236966,"population":1472,"stateCapital":false,"nationalCapital":false,"pk":null,"quiz":"europe","code":null,"archived":false,"percentageOfSessions":null}, {"name":"Gökçeali","state":"İstanbul","territory":"","country":"Turkey","latitude":41.2011203,"longitude":28.4435209,"population":1858,"stateCapital":false,"nationalCapital":false,"pk":null,"quiz":"europe","code":null,"archived":false,"percentageOfSessions":null}, {"name":"Gümüşpınar","state":"İstanbul","territory":"","country":"Turkey","latitude":41.314438,"longitude":28.285694,"population":889,"stateCapital":false,"nationalCapital":false,"pk":null,"quiz":"europe","code":null,"archived":false,"percentageOfSessions":null}, {"name":"Gümüşyaka","state":"İstanbul","territory":"","country":"Turkey","latitude":41.0599474,"longitude":28.02374,"population":8089,"stateCapital":false,"nationalCapital":false,"pk":null,"quiz":"europe","code":null,"archived":false,"percentageOfSessions":null}, {"name":"Hacımaşlı","state":"İstanbul","territory":"","country":"Turkey","latitude":41.155584,"longitude":28.7145992,"population":631,"stateCapital":false,"nationalCapital":false,"pk":null,"quiz":"europe","code":null,"archived":false,"percentageOfSessions":null}, {"name":"Hadımköy","state":"İstanbul","territory":"","country":"Turkey","latitude":41.1585587,"longitude":28.6212692,"population":48645,"stateCapital":false,"nationalCapital":false,"pk":null,"quiz":"europe","code":null,"archived":false,"percentageOfSessions":null}, {"name":"Hadımköy","state":"İstanbul","territory":"","country":"Turkey","latitude":41.1872859,"longitude":28.5561065,"population":845,"stateCapital":false,"nationalCapital":false,"pk":null,"quiz":"europe","code":null,"archived":false,"percentageOfSessions":null}, {"name":"Hallaçlı","state":"İstanbul","territory":"","country":"Turkey","latitude":41.3204276,"longitude":28.1000039,"population":1509,"stateCapital":false,"nationalCapital":false,"pk":null,"quiz":"europe","code":null,"archived":false,"percentageOfSessions":null}, {"name":"Haraççı","state":"İstanbul","territory":"","country":"Turkey","latitude":41.1763646,"longitude":28.7024285,"population":17979,"stateCapital":false,"nationalCapital":false,"pk":null,"quiz":"europe","code":null,"archived":false,"percentageOfSessions":null}, {"name":"Hisarbeyli","state":"İstanbul","territory":"","country":"Turkey","latitude":41.368565,"longitude":28.474049,"population":352,"stateCapital":false,"nationalCapital":false,"pk":null,"quiz":"europe","code":null,"archived":false,"percentageOfSessions":null}, {"name":"İhsaniye","state":"İstanbul","territory":"","country":"Turkey","latitude":41.2544762,"longitude":28.3585871,"population":1660,"stateCapital":false,"nationalCapital":false,"pk":null,"quiz":"europe","code":null,"archived":false,"percentageOfSessions":null}, {"name":"İnceğiz","state":"İstanbul","territory":"","country":"Turkey","latitude":41.1859009,"longitude":28.4035095,"population":832,"stateCapital":false,"nationalCapital":false,"pk":null,"quiz":"europe","code":null,"archived":false,"percentageOfSessions":null}, {"name":"İstanbul","state":"İstanbul","territory":"","country":"Turkey","latitude":41.006381,"longitude":28.9758715,"population":14825719,"stateCapital":true,"nationalCapital":false,"pk":null,"quiz":"europe","code":null,"archived":false,"percentageOfSessions":null}, {"name":"Kabakça","state":"İstanbul","territory":"","country":"Turkey","latitude":41.2284603,"longitude":28.3695911,"population":1666,"stateCapital":false,"nationalCapital":false,"pk":null,"quiz":"europe","code":null,"archived":false,"percentageOfSessions":null}, {"name":"Kalfa","state":"İstanbul","territory":"","country":"Turkey","latitude":41.289814,"longitude":28.437193,"population":785,"stateCapital":false,"nationalCapital":false,"pk":null,"quiz":"europe","code":null,"archived":false,"percentageOfSessions":null}, {"name":"Karaburun","state":"İstanbul","territory":"","country":"Turkey","latitude":41.3458809,"longitude":28.6820201,"population":1630,"stateCapital":false,"nationalCapital":false,"pk":null,"quiz":"europe","code":null,"archived":false,"percentageOfSessions":null}, {"name":"Karacaköy","state":"İstanbul","territory":"","country":"Turkey","latitude":41.4022498,"longitude":28.3816684,"population":2471,"stateCapital":false,"nationalCapital":false,"pk":null,"quiz":"europe","code":null,"archived":false,"percentageOfSessions":null}, {"name":"Karamandere","state":"İstanbul","territory":"","country":"Turkey","latitude":41.376106,"longitude":28.3065,"population":663,"stateCapital":false,"nationalCapital":false,"pk":null,"quiz":"europe","code":null,"archived":false,"percentageOfSessions":null}, {"name":"Kavaklı","state":"İstanbul","territory":"","country":"Turkey","latitude":41.092394,"longitude":28.3356266,"population":3792,"stateCapital":false,"nationalCapital":false,"pk":null,"quiz":"europe","code":null,"archived":false,"percentageOfSessions":null}, {"name":"Kestanelik","state":"İstanbul","territory":"","country":"Turkey","latitude":41.235188,"longitude":28.495035,"population":2287,"stateCapital":false,"nationalCapital":false,"pk":null,"quiz":"europe","code":null,"archived":false,"percentageOfSessions":null}, {"name":"Kızılcaali","state":"İstanbul","territory":"","country":"Turkey","latitude":41.2362303,"longitude":28.5594042,"population":209,"stateCapital":false,"nationalCapital":false,"pk":null,"quiz":"europe","code":null,"archived":false,"percentageOfSessions":null}, {"name":"Küçük Sinekli","state":"İstanbul","territory":"","country":"Turkey","latitude":41.2291727,"longitude":28.1915768,"population":166,"stateCapital":false,"nationalCapital":false,"pk":null,"quiz":"europe","code":null,"archived":false,"percentageOfSessions":null}, {"name":"Kurfallı","state":"İstanbul","territory":"","country":"Turkey","latitude":41.2008973,"longitude":28.261278,"population":485,"stateCapital":false,"nationalCapital":false,"pk":null,"quiz":"europe","code":null,"archived":false,"percentageOfSessions":null}, {"name":"Muratbey","state":"İstanbul","territory":"","country":"Turkey","latitude":41.0956974,"longitude":28.4930268,"population":1399,"stateCapital":false,"nationalCapital":false,"pk":null,"quiz":"europe","code":null,"archived":false,"percentageOfSessions":null}, {"name":"Oklalı","state":"İstanbul","territory":"","country":"Turkey","latitude":41.224525,"longitude":28.475758,"population":1367,"stateCapital":false,"nationalCapital":false,"pk":null,"quiz":"europe","code":null,"archived":false,"percentageOfSessions":null}, {"name":"Örcünlü","state":"İstanbul","territory":"","country":"Turkey","latitude":41.223648,"longitude":28.523932,"population":501,"stateCapital":false,"nationalCapital":false,"pk":null,"quiz":"europe","code":null,"archived":false,"percentageOfSessions":null}, {"name":"Örencik","state":"İstanbul","territory":"","country":"Turkey","latitude":41.329559,"longitude":28.482586,"population":905,"stateCapital":false,"nationalCapital":false,"pk":null,"quiz":"europe","code":null,"archived":false,"percentageOfSessions":null}, {"name":"Ormanlı","state":"İstanbul","territory":"","country":"Turkey","latitude":41.392712,"longitude":28.453407,"population":1033,"stateCapital":false,"nationalCapital":false,"pk":null,"quiz":"europe","code":null,"archived":false,"percentageOfSessions":null},